[{"name":"Koramangala","lat":12.93574,"lng":77.62408},{"name":"Indiranagar","lat":12.97329,"lng":77.64047},{"name":"HSR Layout","lat":12.91162,"lng":77.63886},{"name":"Whitefield","lat":12.96964,"lng":77.74974},{"name":"Jayanagar","lat":12.92927,"lng":77.58242},{"name":"JP Nagar","lat":12.90969,"lng":77.58661},{"name":"BTM Layout","lat":12.914,"lng":77.61028},{"name":"Hebbal","lat":13.03822,"lng":77.5919},{"name":"Marathahalli","lat":12.95526,"lng":77.69842},{"name":"Electronic City","lat":12.84364,"lng":77.66868},{"name":"Rajajinagar","lat":12.98823,"lng":77.55488},{"name":"Banashankari","lat":12.92782,"lng":77.55662},{"name":"Kalyan Nagar","lat":13.02214,"lng":77.64034},{"name":"Yelahanka","lat":13.1007,"lng":77.59635},{"name":"Domlur","lat":12.96247,"lng":77.6382},{"name":"Basavanagudi","lat":12.94173,"lng":77.5755},{"name":"1st Block","lat":12.9312,"lng":77.47919},{"name":"2nd Block","lat":12.93313,"lng":77.47198},{"name":"3rd Block","lat":12.94459,"lng":77.48228},{"name":"4th Block","lat":12.94442,"lng":77.47524},{"name":"4th Phase","lat":13.10484,"lng":77.57532},{"name":"5th Block","lat":12.95998,"lng":77.48219},{"name":"5th Phase","lat":13.10515,"lng":77.57148},{"name":"6th Block","lat":12.96015,"lng":77.47584},{"name":"7th Block","lat":12.92039,"lng":77.4447},{"name":"8th Block","lat":12.94338,"lng":77.44143},{"name":"9th Block","lat":12.9555,"lng":77.44151},{"name":"A Narayanapura","lat":12.99308,"lng":77.67536},{"name":"Abbaiah Reddy Layout","lat":12.97923,"lng":77.68094},{"name":"Abbanakuppe","lat":12.77059,"lng":77.40775},{"name":"Abbigere","lat":13.07427,"lng":77.52887},{"name":"Abshot Layout","lat":12.99307,"lng":77.58664},{"name":"Achaiah Chetty Layout","lat":13.01347,"lng":77.58301},{"name":"Achyutha Nagara","lat":13.08986,"lng":77.48473},{"name":"Adakamaranahalli","lat":13.0657,"lng":77.44253},{"name":"Adarsh Nagar","lat":13.03055,"lng":77.60943},{"name":"Addiganahalli","lat":13.17353,"lng":77.57005},{"name":"Adigar Kallahalli","lat":12.82542,"lng":77.80406},{"name":"Adigondanahalli","lat":12.81415,"lng":77.7519},{"name":"Adithyanagara","lat":13.08573,"lng":77.55117},{"name":"Aditya Layout","lat":12.92668,"lng":77.52493},{"name":"Adugodi","lat":12.94402,"lng":77.60889},{"name":"Aduru","lat":13.05594,"lng":77.70514},{"name":"AECS Layout","lat":12.96412,"lng":77.71304},{"name":"AECS Layout A Block","lat":12.96453,"lng":77.71119},{"name":"AECS Layout B Block","lat":12.96511,"lng":77.71582},{"name":"AECS Layout D Block","lat":12.96281,"lng":77.7104},{"name":"AECS Layout, A block","lat":12.88434,"lng":77.64949},{"name":"Agalukote","lat":13.21348,"lng":77.7364},{"name":"Agara","lat":13.03867,"lng":77.64681},{"name":"Agrahara Layout","lat":13.09789,"lng":77.62596},{"name":"AGS Layout","lat":12.91277,"lng":77.53405},{"name":"Air View Colony","lat":12.95474,"lng":77.66126},{"name":"Aivarakandapura","lat":13.1373,"lng":77.49296},{"name":"Ajgondahalli","lat":12.96075,"lng":77.77095},{"name":"AKG Colony","lat":12.98195,"lng":77.76199},{"name":"Akkithimmanahalli","lat":12.95989,"lng":77.59545},{"name":"Akshaya Greens","lat":12.85937,"lng":77.7899},{"name":"Akshaya Nagar","lat":13.01954,"lng":77.68313},{"name":"Akshaynagar Layout","lat":12.8732,"lng":77.61459},{"name":"Alappanahalli","lat":13.10163,"lng":77.77612},{"name":"Alfa Gardens","lat":13.00653,"lng":77.72053},{"name":"Allalasandra","lat":12.73291,"lng":77.45413},{"name":"Aluru","lat":13.0856,"lng":77.46507},{"name":"Amarjyothi Layout","lat":12.95663,"lng":77.64274},{"name":"Amarjyothi Nagar","lat":12.97392,"lng":77.52912},{"name":"Amarjyothi Nagara","lat":13.03571,"lng":77.59669},{"name":"Ambalagere","lat":13.24347,"lng":77.38768},{"name":"Ambalipura","lat":12.91733,"lng":77.66716},{"name":"Ambedkar Colony","lat":12.97089,"lng":77.69519},{"name":"Ambedkar Nagar","lat":12.94909,"lng":77.61849},{"name":"Ambedkar Nagara","lat":12.90093,"lng":77.7135},{"name":"Amrutahalli","lat":13.06623,"lng":77.60076},{"name":"Amruthnagar","lat":13.05699,"lng":77.59811},{"name":"AMS Layout","lat":13.08773,"lng":77.55858},{"name":"Anagalapura","lat":13.06876,"lng":77.68219},{"name":"Anand Nagar","lat":13.0347,"lng":77.59446},{"name":"Anand Nagar Colony","lat":13.03134,"lng":77.59063},{"name":"Ananda Nagara","lat":12.96104,"lng":77.70053},{"name":"Anandapura","lat":13.02393,"lng":77.69236},{"name":"Anandapuram","lat":12.96459,"lng":77.65947},{"name":"Anantapura","lat":13.11509,"lng":77.568},{"name":"Anantnagar","lat":12.8376,"lng":77.68656},{"name":"Anchappa Garden","lat":13.01006,"lng":77.59606},{"name":"Anchepalya","lat":13.05773,"lng":77.48041},{"name":"Anchipura","lat":12.77007,"lng":77.43142},{"name":"Andapura","lat":12.82518,"lng":77.70479},{"name":"Andrahalli","lat":13.00859,"lng":77.48303},{"name":"Anekal","lat":12.70864,"lng":77.6994},{"name":"Anepalya","lat":12.95102,"lng":77.61092},{"name":"Anglo-Indian Quarters","lat":12.96342,"lng":77.61363},{"name":"Anjanappa Garden","lat":13.00825,"lng":77.6001},{"name":"Anjanapura","lat":12.86013,"lng":77.55406},{"name":"Anjanapura 10th Block","lat":12.856,"lng":77.57035},{"name":"Anjanapura 1st Block","lat":12.85885,"lng":77.54776},{"name":"Anjanapura 2nd Block","lat":12.86287,"lng":77.54982},{"name":"Anjanapura 3rd Block","lat":12.86444,"lng":77.55574},{"name":"Anjanapura 4th Block","lat":12.85869,"lng":77.55972},{"name":"Anjanapura 5th Block","lat":12.85765,"lng":77.55844},{"name":"Anjanapura 6th Block","lat":12.85368,"lng":77.55184},{"name":"Anjanapura 7th Block","lat":12.86232,"lng":77.5545},{"name":"Anjanapura 8th Block","lat":12.85884,"lng":77.55493},{"name":"Anjanapura 9th Block","lat":12.85667,"lng":77.56701},{"name":"Ankonahalli","lat":13.20468,"lng":77.79907},{"name":"Annaniappa Layout","lat":12.95668,"lng":77.66072},{"name":"Annapoorneshwari Nagara","lat":12.98072,"lng":77.50689},{"name":"Annasandra Palya","lat":12.96366,"lng":77.67299},{"name":"Anneshvara","lat":13.21302,"lng":77.7142},{"name":"Annihalli","lat":12.70034,"lng":77.38403},{"name":"Anthivadi","lat":12.71331,"lng":77.80083},{"name":"Anugondanahalli","lat":12.95826,"lng":77.81457},{"name":"Appareddipalaya","lat":12.97419,"lng":77.63724},{"name":"Appavu Nagar","lat":12.73322,"lng":77.81392},{"name":"Arab Lines","lat":12.96537,"lng":77.60609},{"name":"Aradeshanahalli","lat":13.22241,"lng":77.56534},{"name":"Arakere","lat":13.20011,"lng":77.53879},{"name":"Arasanahalli","lat":13.20187,"lng":77.7998},{"name":"Archakara Badavane","lat":12.91864,"lng":77.45284},{"name":"Are Halli","lat":12.7638,"lng":77.76634},{"name":"Arehalli","lat":12.93647,"lng":77.82895},{"name":"Arekere","lat":12.88721,"lng":77.59605},{"name":"Arishinakunte","lat":13.07848,"lng":77.42257},{"name":"Arjuna Bettahalli","lat":13.15984,"lng":77.41927},{"name":"Arkavathy Layout","lat":13.06713,"lng":77.6219},{"name":"Arkavathy Layout 11th Block","lat":13.0597,"lng":77.6261},{"name":"Arkavathy Layout 16th Block","lat":13.04613,"lng":77.6367},{"name":"Arkavathy Layout 17th Block","lat":13.05608,"lng":77.64113},{"name":"Arkavathy Layout 18th Block","lat":13.04369,"lng":77.64814},{"name":"Arkavathy Layout 19th Block","lat":13.0327,"lng":77.64638},{"name":"Arkavathy Layout 1st Block","lat":13.08404,"lng":77.60832},{"name":"Arkavathy Layout 20th Block","lat":13.03419,"lng":77.64347},{"name":"Arkavathy Layout 3rd Block","lat":13.07576,"lng":77.62034},{"name":"Arkavathy Layout 4th Block","lat":13.07397,"lng":77.62376},{"name":"Arkavathy Layout 5th Block","lat":13.0634,"lng":77.64056},{"name":"Arkavathy Layout 6th Block","lat":13.06075,"lng":77.64051},{"name":"Arkavathy Layout 7th Block","lat":13.07472,"lng":77.60982},{"name":"Arkavathy Layout 8th Block","lat":13.06974,"lng":77.6186},{"name":"Army Welfhare Housing","lat":13.15424,"lng":77.64003},{"name":"Ashok Nagar","lat":12.96944,"lng":77.60923},{"name":"Ashokanagara","lat":12.93595,"lng":77.56417},{"name":"Ashokapuram","lat":13.0148,"lng":77.54761},{"name":"Ashraya Layout","lat":12.98582,"lng":77.70545},{"name":"Ashwath Nagar","lat":12.95826,"lng":77.70312},{"name":"Attibele","lat":13.16944,"lng":77.79472},{"name":"Attiguppe","lat":12.96285,"lng":77.52917},{"name":"Attur Layout","lat":13.09945,"lng":77.56803},{"name":"Atturu","lat":13.10747,"lng":77.56569},{"name":"Austin Town","lat":12.96127,"lng":77.61529},{"name":"Austin Town BDA Layout","lat":12.95667,"lng":77.61539},{"name":"Avadadenahalli","lat":12.74714,"lng":77.711},{"name":"Avalahalli","lat":13.03528,"lng":77.73657},{"name":"Avalapalli","lat":12.74497,"lng":77.83059},{"name":"Avaragere","lat":12.81979,"lng":77.38029},{"name":"Averahalli","lat":13.03535,"lng":77.41574},{"name":"Ayyappanagara","lat":13.00279,"lng":77.70943},{"name":"B Channasandra","lat":13.00992,"lng":77.66027},{"name":"B Chikkanna Layout","lat":12.9925,"lng":77.69111},{"name":"B. Narayanapura","lat":12.99806,"lng":77.68486},{"name":"Babasaheb Colony","lat":12.96592,"lng":77.64336},{"name":"Babusabpalya","lat":13.02835,"lng":77.65047},{"name":"Badrappa Layout","lat":13.05144,"lng":77.57603},{"name":"Bagalagunte","lat":13.05629,"lng":77.50694},{"name":"Bagaluru","lat":13.13319,"lng":77.66871},{"name":"Baguru","lat":12.89664,"lng":77.84168},{"name":"Baichapura","lat":13.22445,"lng":77.71264},{"name":"Bairanayakanahalli","lat":13.19245,"lng":77.36544},{"name":"Bairapura","lat":13.20132,"lng":77.52313},{"name":"Bairasandra","lat":13.24841,"lng":77.52014},{"name":"Bairashettihalli","lat":13.15724,"lng":77.40301},{"name":"Baiyyappanahalli","lat":12.99634,"lng":77.65332},{"name":"Balagere","lat":12.93772,"lng":77.72807},{"name":"Balaji Layout","lat":13.00146,"lng":77.62364},{"name":"Balaji Layout Phase 2","lat":13.12565,"lng":77.63911},{"name":"Balenahalli","lat":13.19925,"lng":77.84887},{"name":"Balepet","lat":12.97312,"lng":77.57593},{"name":"Balepura","lat":13.19882,"lng":77.77812},{"name":"Ballagere","lat":13.24593,"lng":77.36056},{"name":"Ballur","lat":12.75458,"lng":77.78781},{"name":"Bananduru","lat":12.77673,"lng":77.39752},{"name":"Banasawadi","lat":13.01506,"lng":77.36493},{"name":"Banashankari 1st Stage","lat":12.93933,"lng":77.55398},{"name":"Banashankari 2nd Stage","lat":12.92687,"lng":77.56372},{"name":"Banashankari 3rd Stage","lat":12.93156,"lng":77.54793},{"name":"Banashankari 6th Stage","lat":12.88492,"lng":77.51548},{"name":"Banashankari 6th Stage, 11th Block","lat":12.90146,"lng":77.50967},{"name":"Banaswadi","lat":13.01416,"lng":77.65185},{"name":"Bandapura","lat":13.03926,"lng":77.74784},{"name":"Bande Bommasandra","lat":13.07656,"lng":77.68098},{"name":"Bande Kodigehalli","lat":13.17252,"lng":77.69115},{"name":"Bandenallasandra","lat":12.79383,"lng":77.65094},{"name":"Bangarappa Nagar","lat":12.92502,"lng":77.52764},{"name":"Banjarapalya","lat":12.82962,"lng":77.48542},{"name":"Bank Avenue Colony","lat":13.02257,"lng":77.6528},{"name":"Bank of Baroda Colony","lat":12.89348,"lng":77.58374},{"name":"Bannerughatta","lat":12.81334,"lng":77.57895},{"name":"Bannigiri","lat":12.75701,"lng":77.436},{"name":"Bannikuppe","lat":12.84723,"lng":77.3848},{"name":"Bapuji Nagar","lat":12.95567,"lng":77.54025},{"name":"Baradi","lat":13.1763,"lng":77.36716},{"name":"Basappa Garden","lat":12.99593,"lng":77.5769},{"name":"Basavanahalli","lat":13.11064,"lng":77.38745},{"name":"Basavanapura","lat":13.22528,"lng":77.57602},{"name":"Basaveshwaranagar","lat":12.99376,"lng":77.53913},{"name":"Basaveshwaranagar 2nd Stage","lat":12.98648,"lng":77.53857},{"name":"Basthi","lat":12.7469,"lng":77.83952},{"name":"Bavikere","lat":13.08645,"lng":77.36834},{"name":"BCC Layout","lat":12.9557,"lng":77.53133},{"name":"BDA Jnanabharathi Residential Enclave","lat":12.91979,"lng":77.48943},{"name":"BDA Layout","lat":12.96199,"lng":77.65854},{"name":"Bedarapalli","lat":12.76376,"lng":77.80871},{"name":"Begepalli","lat":12.77941,"lng":77.79988},{"name":"Begihalli","lat":12.7951,"lng":77.61473},{"name":"Beguru","lat":13.13826,"lng":77.84312},{"name":"BEL Colony","lat":13.04707,"lng":77.55391},{"name":"BEL Layout","lat":13.07297,"lng":77.55436},{"name":"Bellahalli","lat":13.09977,"lng":77.64271},{"name":"Bellanduru","lat":12.92921,"lng":77.67704},{"name":"Bellikere","lat":12.93045,"lng":77.797},{"name":"Belthur","lat":13.00567,"lng":77.75628},{"name":"Belur Nagasandra","lat":12.9431,"lng":77.65563},{"name":"Belure Ambedkar Nagar","lat":12.94609,"lng":77.66093},{"name":"BEML Layout 3rd Stage","lat":12.91965,"lng":77.52022},{"name":"BEML Layout 5th Stage","lat":12.90836,"lng":77.52091},{"name":"BEML Layout 7th Phase","lat":12.91439,"lng":77.49825},{"name":"BEML Township","lat":12.97219,"lng":77.66847},{"name":"Bendiganahalli","lat":13.0683,"lng":77.75925},{"name":"Bendre Nagar","lat":12.91021,"lng":77.56392},{"name":"Benniganahalli","lat":12.99492,"lng":77.6626},{"name":"Benson Town","lat":12.99734,"lng":77.60368},{"name":"Bestcounty2","lat":13.0929,"lng":77.54428},{"name":"Bethel Layout","lat":12.95684,"lng":77.60237},{"name":"Bethel Nagar","lat":13.00541,"lng":77.71721},{"name":"Betta Halasuru","lat":13.16168,"lng":77.6098},{"name":"Bettadasanpura","lat":12.84204,"lng":77.63225},{"name":"Bettahalli","lat":13.18198,"lng":77.8216},{"name":"Bettahalli Kaval","lat":12.73548,"lng":77.50825},{"name":"Bettakote","lat":13.19923,"lng":77.74093},{"name":"Bettana Palya","lat":12.91156,"lng":77.44338},{"name":"Bettangere","lat":12.85666,"lng":77.3641},{"name":"Bettenahalli","lat":13.20866,"lng":77.5886},{"name":"Bhaktarahalli","lat":13.02057,"lng":77.79414},{"name":"Bharathi Nagar","lat":13.1396,"lng":77.62107},{"name":"Bharathidasan Nagar","lat":12.72017,"lng":77.82834},{"name":"Bharathnagar","lat":12.98013,"lng":77.47841},{"name":"Bhattara Marenahalli","lat":13.16651,"lng":77.73572},{"name":"Bhattarahalli","lat":13.0258,"lng":77.71428},{"name":"BHBCS Layout","lat":12.91518,"lng":77.60064},{"name":"BHCS Layout","lat":12.90135,"lng":77.52838},{"name":"BHEL Layout","lat":12.91844,"lng":77.50925},{"name":"Bhimajyothi LIC HBCS Layout","lat":12.99807,"lng":77.54146},{"name":"Bhimanakuppe","lat":12.9043,"lng":77.43865},{"name":"Bhoganahalli","lat":12.92651,"lng":77.70091},{"name":"Bhoomi Reddy Colony","lat":12.97523,"lng":77.65213},{"name":"Bhoopasandra","lat":13.042,"lng":77.57826},{"name":"Bhuvanahalli","lat":13.21769,"lng":77.68169},{"name":"Bhuvaneshwari Nagar","lat":12.92325,"lng":77.54938},{"name":"Bhuvaneshwari Nagara 1st Stage","lat":12.94399,"lng":77.48763},{"name":"Bhuvaneshwari Nagara 2nd Stage","lat":12.94326,"lng":77.49073},{"name":"Bidadi","lat":12.79885,"lng":77.38699},{"name":"Bidalapura","lat":13.18714,"lng":77.77562},{"name":"Bidaragere","lat":12.71447,"lng":77.72346},{"name":"Bidaraguppe","lat":12.80606,"lng":77.78629},{"name":"Bidarahalli","lat":13.06055,"lng":77.71561},{"name":"Bidare Agrahara","lat":13.03092,"lng":77.74277},{"name":"Bikkanahalli","lat":12.83761,"lng":77.75998},{"name":"Bikkanahalli Hosahalli","lat":12.8478,"lng":77.76483},{"name":"Bilekahalli","lat":12.89797,"lng":77.60857},{"name":"Bileshivale","lat":13.05433,"lng":77.67102},{"name":"Billapura","lat":12.83702,"lng":77.78564},{"name":"Binnamangala","lat":12.98399,"lng":77.64168},{"name":"Binny Layout","lat":12.97191,"lng":77.53425},{"name":"Bisanahalli","lat":13.00834,"lng":77.8124},{"name":"Bismillah Nagar","lat":12.92634,"lng":77.60338},{"name":"BM Kaval","lat":12.98169,"lng":77.64837},{"name":"Bodana Hosahalli","lat":12.97842,"lng":77.80196},{"name":"Bolamaranahalli","lat":13.02709,"lng":77.3668},{"name":"Bommanahalli","lat":12.90895,"lng":77.6239},{"name":"Bommandapalli","lat":12.714,"lng":77.78702},{"name":"Bommasandra","lat":12.81624,"lng":77.69161},{"name":"Bommashettihalli","lat":13.13122,"lng":77.41962},{"name":"Bommenahalli","lat":13.07425,"lng":77.74659},{"name":"BOOHBCS Layout","lat":12.87207,"lng":77.55388},{"name":"Brooke Bond","lat":12.96356,"lng":77.74931},{"name":"Brookefield","lat":12.96521,"lng":77.71794},{"name":"Brookes Haven Layout","lat":12.87173,"lng":77.57493},{"name":"Brundavana Layout","lat":13.00123,"lng":77.43917},{"name":"BTM 2nd Stage","lat":12.91408,"lng":77.61889},{"name":"BTM Layout 1st Stage","lat":12.919,"lng":77.61129},{"name":"BTM Layout 2nd Stage","lat":12.91401,"lng":77.60795},{"name":"Budamanahalli","lat":13.19114,"lng":77.52806},{"name":"Budigere","lat":13.13515,"lng":77.7472},{"name":"Budihala","lat":13.22879,"lng":77.74282},{"name":"Bukkasagara","lat":12.7798,"lng":77.62004},{"name":"Buvaneswari Nagara","lat":13.05641,"lng":77.60243},{"name":"Byadarahalli","lat":12.9833,"lng":77.48094},{"name":"Byagadadenahalli","lat":12.74263,"lng":77.70148},{"name":"Byalahalli","lat":12.93961,"lng":77.81595},{"name":"Byalakere","lat":13.11241,"lng":77.52505},{"name":"Byalalu","lat":12.8922,"lng":77.37579},{"name":"Byappanahalli","lat":13.07213,"lng":77.72002},{"name":"Byata","lat":13.19267,"lng":77.48515},{"name":"Byataranyapura","lat":12.94763,"lng":77.54136},{"name":"Byatarayanadoddi","lat":12.81605,"lng":77.55101},{"name":"Byatarayanapura","lat":13.06665,"lng":77.59197},{"name":"Byramangala","lat":12.74925,"lng":77.4223},{"name":"Byrasandra","lat":12.98222,"lng":77.66578},{"name":"Byrathi","lat":13.05635,"lng":77.6521},{"name":"Byrathi Bande","lat":13.07053,"lng":77.65521},{"name":"Byrathikhane","lat":13.04125,"lng":77.6498},{"name":"Byraveshwara Nagara","lat":13.03738,"lng":77.49112},{"name":"C V Raman Nagar","lat":12.98565,"lng":77.66498},{"name":"Cambridge Layout","lat":12.97012,"lng":77.62778},{"name":"Canara Bank Colony","lat":12.93119,"lng":77.59089},{"name":"Canara Bank Layout","lat":13.06857,"lng":77.57836},{"name":"Carmelaram","lat":12.9112,"lng":77.70651},{"name":"Central Excise Layout","lat":12.97385,"lng":77.53298},{"name":"Chagalatti","lat":13.12234,"lng":77.66925},{"name":"Chakravarty Layout","lat":12.99681,"lng":77.58573},{"name":"Challaghatta","lat":12.89607,"lng":77.454},{"name":"Challahalli","lat":13.21728,"lng":77.50667},{"name":"Chamarajapete","lat":12.95842,"lng":77.56292},{"name":"Chamundeshwari Layout","lat":13.06677,"lng":77.55557},{"name":"Chamundi Nagara","lat":13.03412,"lng":77.5993},{"name":"Chandana Layout","lat":12.98638,"lng":77.50675},{"name":"Chandapura","lat":12.80044,"lng":77.70628},{"name":"Chandra Layout","lat":12.95904,"lng":77.52509},{"name":"Chandra Nagar","lat":12.90086,"lng":77.56311},{"name":"Chandra Reddy Layout","lat":12.93523,"lng":77.6301},{"name":"Channadevi Agrahara","lat":13.21785,"lng":77.45561},{"name":"Channahalli","lat":13.21268,"lng":77.74938},{"name":"Channama Layout","lat":12.97914,"lng":77.71268},{"name":"Channarayapatna","lat":13.24559,"lng":77.79708},{"name":"Channasandra","lat":12.98049,"lng":77.76839},{"name":"Chatekere Palya","lat":12.83297,"lng":77.60879},{"name":"Chelekere","lat":13.02866,"lng":77.6425},{"name":"Chettupalya","lat":12.89602,"lng":77.4853},{"name":"Chikka Aralagere","lat":13.20059,"lng":77.82431},{"name":"Chikka Banasawadi","lat":13.00711,"lng":77.64702},{"name":"Chikka Banavara","lat":13.08038,"lng":77.50189},{"name":"Chikka Gattiganabbe","lat":13.04118,"lng":77.79466},{"name":"Chikka Hosahalli","lat":13.20253,"lng":77.75449},{"name":"Chikka Kammanahalli","lat":12.84872,"lng":77.5999},{"name":"Chikka Kodigehalli","lat":12.97218,"lng":77.46501},{"name":"Chikka Kukkanahalli","lat":13.15873,"lng":77.44794},{"name":"Chikkabellanduru","lat":12.9129,"lng":77.71614},{"name":"Chikkabidarakallu","lat":13.04916,"lng":77.48749},{"name":"Chikkabommasandra","lat":13.09167,"lng":77.58039},{"name":"Chikkabyrathi","lat":13.05532,"lng":77.6495},{"name":"Chikkagubbi","lat":13.08061,"lng":77.66622},{"name":"Chikkahosahalli","lat":12.70511,"lng":77.64506},{"name":"Chikkahulluru","lat":13.10694,"lng":77.82577},{"name":"Chikkajala","lat":13.17093,"lng":77.63465},{"name":"Chikkalasandra","lat":12.91219,"lng":77.54763},{"name":"Chikkanahalli","lat":12.88117,"lng":77.35448},{"name":"Chikkanayakanahalli","lat":12.89234,"lng":77.6942},{"name":"Chikkapete","lat":12.96978,"lng":77.57569},{"name":"Chikkasanni","lat":13.23122,"lng":77.6894},{"name":"Chikkegowdanpalya","lat":12.8802,"lng":77.51446},{"name":"Chimachanahalli","lat":13.22611,"lng":77.79049},{"name":"Chimandahalli","lat":13.05059,"lng":77.81219},{"name":"Chimasandra","lat":13.04786,"lng":77.73892},{"name":"Chinna Elasagiri","lat":12.7573,"lng":77.81614},{"name":"Chinnanna Layout","lat":13.02561,"lng":77.61106},{"name":"Chinnappa Garden","lat":13.0049,"lng":77.5987},{"name":"Chinnappanahalli","lat":12.96128,"lng":77.70441},{"name":"Chinnayanapalya","lat":12.94792,"lng":77.60091},{"name":"Chokkahalli","lat":13.11149,"lng":77.83481},{"name":"Chokkanahalli","lat":13.11323,"lng":77.68734},{"name":"Chokkenahalli","lat":13.18325,"lng":77.53951},{"name":"Cholanayakanahalli","lat":13.03645,"lng":77.59753},{"name":"Cholappanahalli","lat":13.11898,"lng":77.84485},{"name":"Cholourpalya","lat":12.97084,"lng":77.54971},{"name":"Choodasandra","lat":12.89216,"lng":77.68038},{"name":"Chowdanahalli","lat":13.21449,"lng":77.62881},{"name":"Chunchanakuppe","lat":12.90956,"lng":77.38664},{"name":"Cleveland Town","lat":12.99404,"lng":77.61161},{"name":"CNR Layout","lat":13.02522,"lng":77.65249},{"name":"Coffee Board Layout","lat":13.05033,"lng":77.60608},{"name":"Commercial Street Market","lat":12.9825,"lng":77.60864},{"name":"Concept City","lat":12.90623,"lng":77.49177},{"name":"Concorde Layout","lat":12.90714,"lng":77.50937},{"name":"Cooke Town","lat":13.0022,"lng":77.62518},{"name":"Corporation Colony","lat":12.95834,"lng":77.64684},{"name":"Corporation Quarters","lat":12.96698,"lng":77.61451},{"name":"Cottonpete","lat":12.96563,"lng":77.56589},{"name":"Cox Town","lat":12.99548,"lng":77.62393},{"name":"CQAL Layout","lat":13.10716,"lng":77.56829},{"name":"Craig Park Layout","lat":12.97138,"lng":77.61584},{"name":"Cubbonpet","lat":12.9685,"lng":77.58523},{"name":"D'Costa Square","lat":13.00408,"lng":77.62365},{"name":"D'Souza Layout","lat":12.96963,"lng":77.5968},{"name":"D'Souza Nagar","lat":12.93214,"lng":77.53264},{"name":"Dandupalya","lat":13.07459,"lng":77.81146},{"name":"Darga","lat":12.7472,"lng":77.81979},{"name":"Darga Mohalla","lat":12.99979,"lng":77.67316},{"name":"Dasanapura","lat":13.07589,"lng":77.43648},{"name":"Dasarahalli","lat":12.97841,"lng":77.54272},{"name":"Dattatreya Nagara","lat":12.92658,"lng":77.53926},{"name":"Deewanarapalya","lat":13.02337,"lng":77.56112},{"name":"Defence Colony","lat":12.97617,"lng":77.64353},{"name":"Defence Layout","lat":13.05987,"lng":77.58518},{"name":"Devagere","lat":12.85714,"lng":77.46557},{"name":"Devanagondi","lat":12.97497,"lng":77.83972},{"name":"Devanahalli","lat":13.24835,"lng":77.71344},{"name":"Devanayakanahalli","lat":13.17546,"lng":77.77186},{"name":"Devarabeesanahalli","lat":12.92686,"lng":77.68951},{"name":"Devasandra","lat":13.00393,"lng":77.70568},{"name":"Devasandra Industrial Estate","lat":12.99704,"lng":77.70041},{"name":"Devashettihalli","lat":13.02406,"lng":77.82163},{"name":"Deverajivanahalli","lat":13.01299,"lng":77.60548},{"name":"Dibburu","lat":13.16795,"lng":77.529},{"name":"Dinnur","lat":13.02296,"lng":77.60322},{"name":"DK Naik Nagar","lat":12.9181,"lng":77.58848},{"name":"Doctors Layout","lat":13.00534,"lng":77.65819},{"name":"Dodakattappa","lat":12.97758,"lng":77.62558},{"name":"Dodda Aralagere","lat":13.1937,"lng":77.83826},{"name":"Dodda Cheemanahalli","lat":13.2462,"lng":77.62117},{"name":"Dodda Dunnasandra","lat":12.97727,"lng":77.81612},{"name":"Dodda Gubbi","lat":13.0712,"lng":77.67318},{"name":"Dodda Hagade","lat":12.74619,"lng":77.68964},{"name":"Dodda Hosahalli","lat":13.19773,"lng":77.74921},{"name":"Dodda Kammanahalli","lat":12.85833,"lng":77.59925},{"name":"Dodda Kurubarahalli","lat":13.22534,"lng":77.80884},{"name":"Doddabanahalli","lat":13.02386,"lng":77.74692},{"name":"Doddabele","lat":12.88986,"lng":77.47556},{"name":"Doddabettahalli","lat":13.09459,"lng":77.55445},{"name":"Doddabidarakallu","lat":13.03522,"lng":77.494},{"name":"Doddabomasandra","lat":13.06275,"lng":77.55851},{"name":"Doddagattinagabbe","lat":13.03349,"lng":77.78702},{"name":"Doddahulluru","lat":13.09687,"lng":77.8194},{"name":"Doddajala","lat":13.17673,"lng":77.65205},{"name":"Doddakannalli","lat":12.90824,"lng":77.69488},{"name":"Doddakoliga","lat":13.15905,"lng":77.83994},{"name":"Doddanekundi","lat":12.97132,"lng":77.69648},{"name":"Doddasanne","lat":13.21776,"lng":77.6941},{"name":"Doddathimmasandra","lat":12.88057,"lng":77.80455},{"name":"Doddathoguru","lat":12.85291,"lng":77.65562},{"name":"Doddatumakuru","lat":13.22715,"lng":77.53047},{"name":"Doddavadagere","lat":13.21247,"lng":77.40636},{"name":"Dodderi","lat":12.86678,"lng":77.37752},{"name":"Doddigunta","lat":12.99261,"lng":77.62259},{"name":"Dollar Scheme Colony","lat":12.91815,"lng":77.61954},{"name":"Dollars Colony","lat":13.04137,"lng":77.56782},{"name":"Dombarahalli","lat":13.04876,"lng":77.46087},{"name":"Domlur 1st Stage","lat":12.95914,"lng":77.63779},{"name":"Domlur 2nd Stage","lat":12.96407,"lng":77.63837},{"name":"Domlur BDA Layout","lat":12.96443,"lng":77.63497},{"name":"Domlur Village","lat":12.96243,"lng":77.6358},{"name":"Dommasandra","lat":12.87771,"lng":77.75348},{"name":"Doopanahalli","lat":12.96746,"lng":77.63964},{"name":"Dooravaninagar","lat":13.00741,"lng":77.67049},{"name":"Dr. Shivaram Karanth Layout","lat":13.10272,"lng":77.53005},{"name":"Dr. Shivaram Karanth Nagar","lat":13.07179,"lng":77.62477},{"name":"Dubasi Palya","lat":12.92951,"lng":77.49669},{"name":"Dwaraka Nagar","lat":13.12085,"lng":77.61869},{"name":"Dyavarahalli","lat":13.2402,"lng":77.59869},{"name":"Dyavasandra","lat":13.20126,"lng":77.84079},{"name":"Ejipura","lat":12.94524,"lng":77.62748},{"name":"Ekarajapura","lat":13.14573,"lng":77.8167},{"name":"Elatthuru","lat":13.22084,"lng":77.64469},{"name":"Electronics City Phase 1","lat":12.84968,"lng":77.66497},{"name":"Electronics City Phase 2 (East)","lat":12.84685,"lng":77.67693},{"name":"Electronics City Phase 2 (West)","lat":12.83716,"lng":77.67252},{"name":"Ellupura","lat":13.24753,"lng":77.56138},{"name":"EPIP Zone","lat":12.97819,"lng":77.72465},{"name":"Eramma Layout","lat":12.94565,"lng":77.60276},{"name":"Eshwara Layout","lat":12.97438,"lng":77.63377},{"name":"Evergreen Layout","lat":13.05815,"lng":77.65043},{"name":"Fair Field Layout","lat":12.98539,"lng":77.58629},{"name":"Fakir Colony","lat":13.10617,"lng":77.62857},{"name":"Fatima Layout","lat":13.04876,"lng":77.62671},{"name":"Ferns Habitat","lat":12.97867,"lng":77.69079},{"name":"Ferrar Nagar","lat":13.11644,"lng":77.56429},{"name":"Frazer Town","lat":12.99759,"lng":77.61367},{"name":"Further Extension","lat":12.966,"lng":77.49069},{"name":"Gadenahalli","lat":13.18854,"lng":77.61783},{"name":"Gajendra Nagara","lat":12.9508,"lng":77.60855},{"name":"Ganagaluru","lat":13.04988,"lng":77.79999},{"name":"Ganakallu","lat":12.85224,"lng":77.35669},{"name":"Ganakkal","lat":12.89718,"lng":77.51207},{"name":"Ganapathy Nagar","lat":12.94634,"lng":77.53963},{"name":"Gandhi Bazaar","lat":12.94579,"lng":77.57067},{"name":"Gandhi Circle","lat":12.94009,"lng":77.74687},{"name":"Gandhi Nagar","lat":12.95416,"lng":77.70695},{"name":"Gandhinagar","lat":12.97715,"lng":77.58003},{"name":"Gandhipura","lat":12.97126,"lng":77.75496},{"name":"Ganga Nagar","lat":13.02325,"lng":77.58836},{"name":"Gangadharanapalya","lat":13.12091,"lng":77.38615},{"name":"Gangappa Layout","lat":12.99286,"lng":77.66983},{"name":"Gangavara Chaudappanahalli","lat":13.15233,"lng":77.76483},{"name":"Gangodanahalli","lat":13.02219,"lng":77.46753},{"name":"Ganigarahalli","lat":13.08905,"lng":77.51099},{"name":"Ganigarapalya","lat":12.8732,"lng":77.53171},{"name":"Ganigarpet","lat":12.96678,"lng":77.58332},{"name":"Gantiganahalli","lat":13.1445,"lng":77.58909},{"name":"Garudacharpalya","lat":12.99343,"lng":77.70052},{"name":"GarvebhaviPalya","lat":12.89507,"lng":77.63458},{"name":"Gastikempanahalli","lat":13.09049,"lng":77.61505},{"name":"Gattahalli","lat":12.86856,"lng":77.70269},{"name":"Gattigere Extension","lat":12.92021,"lng":77.5255},{"name":"Gattigerepalya","lat":12.88199,"lng":77.50196},{"name":"Gaudahalli","lat":13.22708,"lng":77.52022},{"name":"Gavipuram","lat":12.94793,"lng":77.56239},{"name":"Gayatri Nagar","lat":13.00004,"lng":77.55901},{"name":"Geddalahalli","lat":13.04863,"lng":77.64467},{"name":"Geetha Colony","lat":12.92973,"lng":77.58549},{"name":"Gejjegadahalli","lat":13.2458,"lng":77.49854},{"name":"Geleyara Balaga Layout","lat":13.07128,"lng":77.50615},{"name":"Gerupalya","lat":12.88465,"lng":77.44247},{"name":"Giddappanahalli","lat":13.17578,"lng":77.81409},{"name":"Giddenahalli","lat":12.99314,"lng":77.41877},{"name":"Giridhama Layout","lat":12.91861,"lng":77.52817},{"name":"Girigowdana Doddi","lat":12.74453,"lng":77.52337},{"name":"Girinagar","lat":12.94014,"lng":77.5445},{"name":"Gitanjali Layout","lat":12.97588,"lng":77.65379},{"name":"GJM Sai Garden Layout","lat":12.95242,"lng":77.71783},{"name":"GKVK Layout","lat":13.08271,"lng":77.60346},{"name":"GKW Layout","lat":12.96811,"lng":77.52844},{"name":"GM Palya","lat":12.97478,"lng":77.66541},{"name":"GNR Gardens","lat":13.02995,"lng":77.64637},{"name":"Gokere","lat":13.24763,"lng":77.74035},{"name":"Gokula","lat":13.04097,"lng":77.55623},{"name":"Gollahalli","lat":13.08305,"lng":77.67579},{"name":"Gollarahatti","lat":12.9893,"lng":77.47457},{"name":"Gollarapalya","lat":12.80202,"lng":77.42553},{"name":"Gongadipura","lat":12.97651,"lng":77.45758},{"name":"Gopahalli","lat":12.72795,"lng":77.4054},{"name":"Gopalapura","lat":13.14147,"lng":77.42772},{"name":"Gopasandra","lat":13.23372,"lng":77.82667},{"name":"Goragunte Palya","lat":13.02677,"lng":77.5374},{"name":"Goravigere","lat":13.04202,"lng":77.76994},{"name":"Goripalya","lat":12.96294,"lng":77.5495},{"name":"Gorkamantapalya","lat":12.97633,"lng":77.66456},{"name":"Gottigehalli","lat":12.72096,"lng":77.52677},{"name":"Gottigere","lat":12.85653,"lng":77.58772},{"name":"Govinda Reddy Layout","lat":12.89176,"lng":77.59462},{"name":"Govindapura","lat":13.03411,"lng":77.6198},{"name":"Govindaraj Nagara","lat":12.97716,"lng":77.53611},{"name":"Gowrenahalli","lat":12.72102,"lng":77.67972},{"name":"Gowtham Colony","lat":12.95747,"lng":77.63984},{"name":"Gowthamapura","lat":12.96898,"lng":77.62534},{"name":"Grace Town","lat":13.029,"lng":77.63287},{"name":"Green Domain Layout","lat":12.97285,"lng":77.71489},{"name":"Green Glen Layout","lat":12.9269,"lng":77.67019},{"name":"Green Leaf Layout","lat":12.93529,"lng":77.62947},{"name":"Gruhalaxmi Layout","lat":13.02885,"lng":77.49859},{"name":"Gubbalala","lat":12.88566,"lng":77.54168},{"name":"Guddadahalli","lat":12.95789,"lng":77.54644},{"name":"Guddahatti","lat":12.80371,"lng":77.74234},{"name":"Guddegaudana Channohalli","lat":13.19464,"lng":77.35023},{"name":"Gullahalli","lat":13.16996,"lng":77.8353},{"name":"Gullahatti Kaval","lat":12.72986,"lng":77.54665},{"name":"Gundur","lat":13.0869,"lng":77.71419},{"name":"Gunduru","lat":12.87647,"lng":77.83809},{"name":"Guni Agrahara","lat":13.0981,"lng":77.52506},{"name":"Gunjur","lat":12.92098,"lng":77.7361},{"name":"Gunjur Hosahalli","lat":12.91988,"lng":77.74235},{"name":"Gunjur Palya","lat":12.92284,"lng":77.71883},{"name":"Gupta Layout","lat":12.97969,"lng":77.62478},{"name":"Gurappana Palya","lat":12.92076,"lng":77.60333},{"name":"Gurudarshan Layout","lat":13.07197,"lng":77.56108},{"name":"Guttahalli","lat":13.00042,"lng":77.58039},{"name":"Hagaduru","lat":12.96621,"lng":77.75721},{"name":"HAL 2nd Stage","lat":12.96894,"lng":77.64371},{"name":"HAL 3rd Stage","lat":12.97153,"lng":77.64978},{"name":"HAL Township","lat":12.96096,"lng":77.66311},{"name":"Halagevaderahalli","lat":12.92164,"lng":77.51422},{"name":"Halanayakanahalli","lat":12.90073,"lng":77.68761},{"name":"Halasahalli","lat":12.92405,"lng":77.76265},{"name":"Halasuru","lat":12.97788,"lng":77.62467},{"name":"Haldenahalli.","lat":12.71771,"lng":77.70842},{"name":"Halebyrohalli","lat":12.92384,"lng":77.44934},{"name":"Halegabbadi","lat":12.71615,"lng":77.47591},{"name":"Halehalli","lat":12.73906,"lng":77.75139},{"name":"Halenahalli","lat":13.22264,"lng":77.39617},{"name":"Hampapura","lat":12.83111,"lng":77.42917},{"name":"Hampi Nagar","lat":12.96091,"lng":77.53584},{"name":"Hancharahalli","lat":13.09291,"lng":77.75016},{"name":"Hanchipura","lat":13.06699,"lng":77.3711},{"name":"Handenahalli","lat":12.95858,"lng":77.84776},{"name":"Handrahalli","lat":13.12094,"lng":77.75059},{"name":"Haniyuru","lat":13.21343,"lng":77.51489},{"name":"Hanuman Nagar","lat":12.97009,"lng":77.65611},{"name":"Hanumantha Nagar","lat":12.94064,"lng":77.56354},{"name":"Hanumanthanagar","lat":13.06061,"lng":77.66927},{"name":"Hanumanthappa Layout","lat":12.97638,"lng":77.61684},{"name":"Haragadde","lat":12.76374,"lng":77.65538},{"name":"Haralur","lat":12.90449,"lng":77.66544},{"name":"Haraluru","lat":13.06504,"lng":77.83818},{"name":"Harappanahalli","lat":12.79048,"lng":77.62269},{"name":"Harohalli","lat":12.9576,"lng":77.78616},{"name":"Harokyatanahalli","lat":13.04956,"lng":77.44463},{"name":"Hasigala","lat":13.13452,"lng":77.7756},{"name":"HBR Layout","lat":13.03199,"lng":77.62808},{"name":"HBR Layout 3rd Block","lat":13.02794,"lng":77.62822},{"name":"HBR Layout 4th Block","lat":13.03404,"lng":77.631},{"name":"HBR Layout 5th Block","lat":13.03747,"lng":77.6288},{"name":"Hebbagodi","lat":12.8267,"lng":77.67997},{"name":"Heelalige","lat":12.81757,"lng":77.70811},{"name":"Heerachand Layout","lat":12.99593,"lng":77.62669},{"name":"Heggadadevanapura","lat":13.07575,"lng":77.45755},{"name":"Heggadagere","lat":12.76221,"lng":77.37773},{"name":"Hegganahalli","lat":13.21873,"lng":77.61044},{"name":"Heggondahalli","lat":12.90554,"lng":77.7472},{"name":"Hejjala","lat":12.85537,"lng":77.41698},{"name":"Hemmigepura","lat":12.88193,"lng":77.4855},{"name":"Hemmigepura Gollahalli","lat":12.87582,"lng":77.47938},{"name":"Hennagara","lat":12.78831,"lng":77.67333},{"name":"Hennur","lat":13.03708,"lng":77.64136},{"name":"Hennur Gardens","lat":13.03769,"lng":77.64329},{"name":"Herohalli","lat":12.99123,"lng":77.48701},{"name":"Hesaraghatta","lat":13.1394,"lng":77.47836},{"name":"High Grounds","lat":12.98651,"lng":77.58308},{"name":"Hirandahalli","lat":13.04681,"lng":77.72278},{"name":"HMT Colony","lat":13.0838,"lng":77.55754},{"name":"HMT Layout","lat":13.02765,"lng":77.59213},{"name":"HMT Watch Factory Colony","lat":13.0467,"lng":77.53247},{"name":"Hollywood Town","lat":13.20824,"lng":77.63579},{"name":"Hongasandra","lat":12.89749,"lng":77.62509},{"name":"Honnadevipura","lat":13.24288,"lng":77.41584},{"name":"Honnasandra","lat":13.11709,"lng":77.44774},{"name":"Honnavara","lat":13.22173,"lng":77.41895},{"name":"Honnenahalli","lat":13.15986,"lng":77.56646},{"name":"Hoodi","lat":12.9919,"lng":77.7162},{"name":"Hoody Garden","lat":12.99436,"lng":77.72037},{"name":"Horamavu","lat":13.02733,"lng":77.66015},{"name":"Hosa Bairohalli","lat":12.91918,"lng":77.45603},{"name":"Hosagabbadi","lat":12.71289,"lng":77.48209},{"name":"Hosahalli","lat":12.96907,"lng":77.54278},{"name":"Hosahalli Golarapalya","lat":12.99368,"lng":77.47797},{"name":"Hosahudya","lat":13.23855,"lng":77.54439},{"name":"Hosakerehalli","lat":12.93019,"lng":77.53783},{"name":"Hosakerehalli Layout","lat":12.93459,"lng":77.54234},{"name":"Hosapalya","lat":12.84197,"lng":77.48291},{"name":"Hoskote","lat":13.07301,"lng":77.79214},{"name":"Hosuru","lat":12.74145,"lng":77.4492},{"name":"Hoysala Nagar","lat":12.98021,"lng":77.62738},{"name":"HRBR Layout 1st Block","lat":13.01981,"lng":77.64525},{"name":"HRBR Layout 2nd Block","lat":13.02345,"lng":77.62821},{"name":"HRBR Layout 3rd Block","lat":13.02506,"lng":77.63471},{"name":"Hulimangala","lat":12.8189,"lng":77.6384},{"name":"Hulimavu","lat":12.87735,"lng":77.6028},{"name":"Hullahalli","lat":12.82673,"lng":77.61705},{"name":"Hunasamaranahalli","lat":13.14401,"lng":77.61912},{"name":"Hunasemaradapalya","lat":12.90436,"lng":77.44711},{"name":"Hurali Chikkanahalli","lat":13.11553,"lng":77.48374},{"name":"Hurulihalli","lat":13.11928,"lng":77.35302},{"name":"Huskur","lat":12.86077,"lng":77.7071},{"name":"Huskuru","lat":13.06163,"lng":77.76291},{"name":"Hutting Colony","lat":12.98149,"lng":77.64314},{"name":"Huvinayakanahalli","lat":13.14788,"lng":77.68968},{"name":"Hyadala","lat":13.2498,"lng":77.78976},{"name":"Hyadalu","lat":13.13849,"lng":77.41066},{"name":"IAS Officers Colony","lat":12.91159,"lng":77.6115},{"name":"Ibasapura","lat":13.24316,"lng":77.82155},{"name":"Iblur","lat":12.92254,"lng":77.66334},{"name":"Ichchanguru","lat":12.77151,"lng":77.74245},{"name":"IDBI Layout","lat":12.86166,"lng":77.58611},{"name":"Ideal Homes Layout","lat":12.92733,"lng":77.51825},{"name":"Iggaluru","lat":12.78696,"lng":77.70482},{"name":"Ilyas Nagar","lat":12.90704,"lng":77.56931},{"name":"Immadihalli","lat":12.9664,"lng":77.76205},{"name":"Income Tax Layout","lat":12.99729,"lng":77.65633},{"name":"Indira Gandhi Colony","lat":12.94601,"lng":77.62476},{"name":"Indiranagar 1st Stage","lat":12.97934,"lng":77.63915},{"name":"Indiranagar 2nd Stage","lat":12.97709,"lng":77.63869},{"name":"Indiranagar 3rd Stage","lat":12.97526,"lng":77.63881},{"name":"Indlabele","lat":12.79096,"lng":77.77778},{"name":"Indlavadi","lat":12.72889,"lng":77.63793},{"name":"Indrasanahalli","lat":13.22574,"lng":77.61407},{"name":"Isaac Layout","lat":13.11575,"lng":77.57722},{"name":"Islampur","lat":12.96303,"lng":77.66923},{"name":"ISRO Colony","lat":12.96772,"lng":77.63361},{"name":"ISRO Layout","lat":12.89743,"lng":77.55738},{"name":"Isturu","lat":13.22638,"lng":77.43583},{"name":"ITC Colony","lat":12.99817,"lng":77.63012},{"name":"ITI Colony","lat":13.00907,"lng":77.68706},{"name":"ITI Industrial Estate","lat":12.99659,"lng":77.69834},{"name":"ITI Layout","lat":12.96657,"lng":77.50167},{"name":"Ittagalapura","lat":13.1709,"lng":77.54223},{"name":"Ittamadu","lat":12.925,"lng":77.54446},{"name":"Jagadish Nagar","lat":12.96825,"lng":77.66482},{"name":"Jagajeevanram Nagara","lat":12.96536,"lng":77.55586},{"name":"Jagruthi Colony","lat":12.8947,"lng":77.58254},{"name":"Jai Bheema Nagar","lat":12.91943,"lng":77.61698},{"name":"Jai Jawan Nagar","lat":13.00718,"lng":77.64265},{"name":"Jakkasandra","lat":12.92435,"lng":77.6376},{"name":"Jakkasandra Block","lat":12.92883,"lng":77.6303},{"name":"Jakkur","lat":13.07847,"lng":77.60689},{"name":"Jakkur Layout","lat":13.07019,"lng":77.60119},{"name":"Jakkur Plantation","lat":13.08346,"lng":77.598},{"name":"Jaladarshini Layout","lat":13.0308,"lng":77.56964},{"name":"Jalahalli","lat":13.04645,"lng":77.54838},{"name":"Jalige","lat":13.22655,"lng":77.5844},{"name":"Janatha Colony","lat":12.86948,"lng":77.69608},{"name":"Jantagondanahalli","lat":12.92444,"lng":77.78606},{"name":"Jarakabande Kaval","lat":13.12038,"lng":77.54761},{"name":"Javaranadoddi","lat":12.93099,"lng":77.52333},{"name":"Jayamahal","lat":12.99908,"lng":77.59712},{"name":"Jayamahal Extension","lat":13.00111,"lng":77.59696},{"name":"Jayanagar 1st Block","lat":12.94185,"lng":77.5869},{"name":"Jayanagar 2nd Block","lat":12.9399,"lng":77.58264},{"name":"Jayanagar 3 East Block","lat":12.93157,"lng":77.5886},{"name":"Jayanagar 3rd Block","lat":12.93386,"lng":77.58303},{"name":"Jayanagar 4T Block","lat":12.92379,"lng":77.59224},{"name":"Jayanagar 4th Block","lat":12.92657,"lng":77.5835},{"name":"Jayanagar 5th Block","lat":12.9196,"lng":77.58338},{"name":"Jayanagar 6th Block","lat":12.93075,"lng":77.57822},{"name":"Jayanagar 7th Block","lat":12.92546,"lng":77.57755},{"name":"Jayanagar 8th Block","lat":12.91972,"lng":77.57763},{"name":"Jayanagar 9th Block","lat":12.919,"lng":77.59213},{"name":"Jayanagar East","lat":12.93366,"lng":77.59092},{"name":"Jayantinagara","lat":13.02764,"lng":77.66594},{"name":"Jayaraj Nagar","lat":12.98106,"lng":77.62568},{"name":"JC Nagar","lat":13.00836,"lng":77.59461},{"name":"JCR Layout","lat":12.93313,"lng":77.70433},{"name":"Jeevan Bhima Nagar","lat":12.96781,"lng":77.65684},{"name":"Jeevanahalli","lat":12.99641,"lng":77.62892},{"name":"JHBCS Layout","lat":12.91221,"lng":77.56408},{"name":"Jigani","lat":12.78525,"lng":77.63809},{"name":"Jinke Bachahalli","lat":13.24668,"lng":77.53227},{"name":"Jinnagara","lat":13.03358,"lng":77.822},{"name":"JK Pura","lat":12.95139,"lng":77.60071},{"name":"Jnana Bharathi","lat":12.94335,"lng":77.51123},{"name":"Jodi Timmasandra","lat":13.20498,"lng":77.42102},{"name":"Jogappa Layout","lat":13.04007,"lng":77.61},{"name":"Jogi Colony","lat":12.93092,"lng":77.61281},{"name":"Jogupalya","lat":12.97469,"lng":77.62803},{"name":"Jooganahalli","lat":12.99275,"lng":77.556},{"name":"Jothinagar","lat":12.96613,"lng":77.66713},{"name":"JP Nagar 1st Phase","lat":12.91191,"lng":77.57989},{"name":"JP Nagar 2nd Phase","lat":12.91184,"lng":77.59057},{"name":"JP Nagar 3rd Phase","lat":12.91179,"lng":77.59762},{"name":"JP Nagar 4th Phase","lat":12.90464,"lng":77.59764},{"name":"JP Nagar 9th Phase","lat":12.86814,"lng":77.56282},{"name":"Judicial Layout","lat":13.08377,"lng":77.58604},{"name":"Judicial Officer's Layout","lat":13.03426,"lng":77.57448},{"name":"Junnasandra","lat":12.90642,"lng":77.68352},{"name":"Justice Bheemiah Layout","lat":13.00292,"lng":77.69456},{"name":"Juttanahalli","lat":13.2397,"lng":77.57803},{"name":"Jyotipura","lat":13.10186,"lng":77.75024},{"name":"K Dommasandra","lat":13.01117,"lng":77.74054},{"name":"K H Ranganath Colony","lat":12.96414,"lng":77.55816},{"name":"K Narayanapura","lat":13.06328,"lng":77.64181},{"name":"K R Layout","lat":12.90342,"lng":77.58281},{"name":"K. Channasandra","lat":13.04002,"lng":77.67962},{"name":"Kaadubeesanahalli","lat":12.93953,"lng":77.69679},{"name":"Kachamaranahalli","lat":12.91233,"lng":77.73278},{"name":"Kacharakanahalli","lat":12.99576,"lng":77.81457},{"name":"Kachohalli","lat":12.99976,"lng":77.46998},{"name":"Kadaagrahara","lat":13.08064,"lng":77.69161},{"name":"Kadabageri","lat":12.99655,"lng":77.43338},{"name":"Kadagrahara","lat":12.863,"lng":77.76306},{"name":"Kadajakkanahalli","lat":12.73774,"lng":77.63445},{"name":"Kadanuru","lat":13.2439,"lng":77.45585},{"name":"Kadathanamale","lat":13.2097,"lng":77.54591},{"name":"Kadiranpalaya","lat":12.98676,"lng":77.63533},{"name":"Kadirenahalli","lat":12.91462,"lng":77.56615},{"name":"Kadu Jakkasandra","lat":12.70101,"lng":77.51287},{"name":"Kadugodi","lat":12.99858,"lng":77.76097},{"name":"Kadugodi Colony","lat":12.99212,"lng":77.74976},{"name":"Kadugondanahalli","lat":13.0207,"lng":77.62155},{"name":"Kaggadasapura","lat":12.98196,"lng":77.67846},{"name":"Kaggalahalli","lat":12.72839,"lng":77.4861},{"name":"Kaggalipura","lat":12.8017,"lng":77.50824},{"name":"Kagganur","lat":12.85146,"lng":77.81967},{"name":"Kaikondrahalli","lat":12.91383,"lng":77.67753},{"name":"Kaithota","lat":12.96728,"lng":77.76505},{"name":"Kakaramanahalli","lat":12.8297,"lng":77.36283},{"name":"Kakolu","lat":13.1875,"lng":77.51985},{"name":"Kalahalli","lat":12.98694,"lng":77.62323},{"name":"Kalasipalyam","lat":12.95819,"lng":77.57681},{"name":"Kalathammanahalli","lat":13.10424,"lng":77.51659},{"name":"Kalena Agrahara","lat":12.86581,"lng":77.59119},{"name":"Kalkere","lat":13.03509,"lng":77.67381},{"name":"Kalkunte Agrahara","lat":12.93242,"lng":77.84081},{"name":"Kallahalli","lat":13.10658,"lng":77.7882},{"name":"Kallubalu","lat":12.7712,"lng":77.62279},{"name":"Kalyani Nagara","lat":12.89628,"lng":77.55372},{"name":"Kamakshipalya","lat":12.98236,"lng":77.52264},{"name":"Kamalanagara","lat":12.99656,"lng":77.52807},{"name":"Kamanahalli","lat":12.90759,"lng":77.79718},{"name":"Kambalipura","lat":12.76078,"lng":77.74308},{"name":"Kambipura","lat":12.87262,"lng":77.46155},{"name":"Kamdhenu Nagar","lat":12.99603,"lng":77.68646},{"name":"Kammagondanahalli","lat":13.06203,"lng":77.53547},{"name":"Kammanahalli","lat":13.01485,"lng":77.6382},{"name":"Kammasandra","lat":13.14999,"lng":77.78204},{"name":"Kanaka Nagar","lat":13.03741,"lng":77.60821},{"name":"Kanakashree Layout","lat":13.05179,"lng":77.65426},{"name":"Kanasavadi","lat":13.20844,"lng":77.43642},{"name":"Kanchugaranahalli","lat":12.72294,"lng":77.44365},{"name":"Kanegaudanahalli","lat":13.1297,"lng":77.38427},{"name":"Kaniminike","lat":12.86472,"lng":77.43106},{"name":"Kankanpalya","lat":12.94212,"lng":77.58398},{"name":"Kannalli","lat":12.96656,"lng":77.45879},{"name":"Kannamangala","lat":13.02772,"lng":77.77026},{"name":"Kannamangala Palya","lat":13.22157,"lng":77.66978},{"name":"Kannurahalli","lat":13.0599,"lng":77.80754},{"name":"Kannuru","lat":13.09233,"lng":77.6539},{"name":"Kanshiram Nagar","lat":13.08959,"lng":77.53897},{"name":"Kanuvanahalli","lat":12.99511,"lng":77.36435},{"name":"Karadigaudanadoddi","lat":12.75038,"lng":77.37393},{"name":"Karapalli","lat":12.70248,"lng":77.84709},{"name":"Kareem Nagar","lat":12.96379,"lng":77.67123},{"name":"Kareemsab Nagar","lat":12.99836,"lng":77.51235},{"name":"Karenahalli","lat":12.81784,"lng":77.36518},{"name":"Karishma Hills","lat":12.88861,"lng":77.53382},{"name":"Kariyammana Agrahara","lat":12.93715,"lng":77.6873},{"name":"Kariyannanapalya","lat":13.01413,"lng":77.62861},{"name":"Karlapura","lat":13.207,"lng":77.49216},{"name":"Karnoor","lat":12.70583,"lng":77.79002},{"name":"Karpuru","lat":12.72669,"lng":77.71958},{"name":"Karthik Nagar","lat":12.96938,"lng":77.69968},{"name":"Kasaghattapura","lat":13.11009,"lng":77.50433},{"name":"Kasavanahalli","lat":13.24148,"lng":77.56757},{"name":"Kasturi Nagar","lat":13.0045,"lng":77.66032},{"name":"Kasturi Nagar 2nd Stage","lat":13.00144,"lng":77.66186},{"name":"Kasturibai Nagar","lat":12.95411,"lng":77.55127},{"name":"Kathalipalya","lat":12.99226,"lng":77.63818},{"name":"Katriguppe","lat":12.9281,"lng":77.54888},{"name":"Kattamanallur","lat":13.05181,"lng":77.76406},{"name":"Kattigenahalli","lat":13.11777,"lng":77.62612},{"name":"Kattugollahalli","lat":13.09584,"lng":77.73535},{"name":"Kaval Byrasandra","lat":13.02002,"lng":77.60929},{"name":"Kaverappa Layout","lat":12.93677,"lng":77.70085},{"name":"Kaveri Layout","lat":12.9731,"lng":77.52686},{"name":"Kaveri Nagar","lat":13.03261,"lng":77.60962},{"name":"Kaveri Nagara","lat":12.99779,"lng":77.70521},{"name":"Kaveri Pura","lat":12.97699,"lng":77.5255},{"name":"KEB Layout","lat":13.03093,"lng":77.58048},{"name":"Kempalinganahalli","lat":13.04736,"lng":77.37244},{"name":"Kempanahalli","lat":13.11136,"lng":77.557},{"name":"Kempapura","lat":13.13117,"lng":77.80204},{"name":"Kempapura Agrahara","lat":12.97062,"lng":77.55538},{"name":"Kempathimmanahalli","lat":13.22349,"lng":77.65449},{"name":"Kempavaderahalli","lat":12.7398,"lng":77.68784},{"name":"Kempayyana Palya","lat":12.72016,"lng":77.43004},{"name":"Kempegowda Layout","lat":13.00079,"lng":77.52647},{"name":"Kenchanakuppe","lat":12.79602,"lng":77.37496},{"name":"Kenchanapura","lat":12.9581,"lng":77.45005},{"name":"Kenchenahalli","lat":13.12001,"lng":77.58493},{"name":"Kengeri","lat":12.92297,"lng":77.48429},{"name":"Kengeri Satelite Town","lat":12.92365,"lng":77.48696},{"name":"Keshavaraj Layout","lat":12.9709,"lng":77.62693},{"name":"Ketaganahalli","lat":12.81325,"lng":77.39107},{"name":"Ketamaranahalli","lat":13.00097,"lng":77.55195},{"name":"Ketohalli","lat":12.90751,"lng":77.40447},{"name":"KFSC Layout","lat":13.01234,"lng":77.63315},{"name":"Khajisonnenahalli","lat":13.03404,"lng":77.76964},{"name":"KHB Colony","lat":12.98445,"lng":77.53426},{"name":"KHR Colony","lat":12.94669,"lng":77.53545},{"name":"Kirloskar Colony","lat":12.99718,"lng":77.5294},{"name":"Kirloskar Layout","lat":13.06696,"lng":77.50093},{"name":"Kittaganahalli","lat":12.80209,"lng":77.69333},{"name":"Kittaganuru","lat":13.03748,"lng":77.71032},{"name":"Kittanahalli","lat":13.00968,"lng":77.41903},{"name":"Kodagalahatti","lat":13.1445,"lng":77.62924},{"name":"Kodappanahalli","lat":13.06451,"lng":77.38193},{"name":"Kodati","lat":12.88726,"lng":77.7159},{"name":"Kodichikkanahalli","lat":12.8967,"lng":77.61243},{"name":"Kodigehalli","lat":13.06011,"lng":77.57677},{"name":"Kodihalli","lat":12.96285,"lng":77.6479},{"name":"Kodipalya","lat":12.7817,"lng":77.4521},{"name":"Kogilu","lat":13.10397,"lng":77.61677},{"name":"Kolathuru","lat":13.07466,"lng":77.82973},{"name":"Kolliganahalli","lat":12.71116,"lng":77.4074},{"name":"Koluvarayanahalli","lat":13.16543,"lng":77.52241},{"name":"Kommaghatta","lat":12.92996,"lng":77.4644},{"name":"Kommasandra","lat":12.86087,"lng":77.74087},{"name":"Konadasapura","lat":13.04419,"lng":77.75664},{"name":"Konanakunte","lat":12.87929,"lng":77.56975},{"name":"Konappana Agrahara","lat":12.85286,"lng":77.66817},{"name":"Konena Agrahara","lat":12.95861,"lng":77.66234},{"name":"Koppa","lat":12.80538,"lng":77.62742},{"name":"Koralur","lat":12.99732,"lng":77.78445},{"name":"Koramangala 1st Block","lat":12.92772,"lng":77.63278},{"name":"Koramangala 2nd Block","lat":12.92437,"lng":77.62424},{"name":"Koramangala 3rd Block","lat":12.92829,"lng":77.6254},{"name":"Koramangala 4th Block","lat":12.93278,"lng":77.62941},{"name":"Koramangala 5th Block","lat":12.93484,"lng":77.61898},{"name":"Koramangala 6th Block","lat":12.93903,"lng":77.62385},{"name":"Koramangala 7th Block","lat":12.93648,"lng":77.61348},{"name":"Koramangala 8th Block","lat":12.94087,"lng":77.61734},{"name":"Kothandram Layout","lat":12.98527,"lng":77.61788},{"name":"Kothanur","lat":13.06136,"lng":77.64939},{"name":"Kothnur","lat":12.87425,"lng":77.58373},{"name":"Kothnur Lake View Layout","lat":12.8718,"lng":77.57856},{"name":"Kowdenahalli","lat":13.01941,"lng":77.67928},{"name":"KPC Layout","lat":12.90419,"lng":77.67785},{"name":"KR Garden","lat":12.95492,"lng":77.6566},{"name":"KR Puram","lat":13.00752,"lng":77.69594},{"name":"Krishna Garden Layout","lat":12.91329,"lng":77.50691},{"name":"Krishna Nagar","lat":12.8775,"lng":77.58455},{"name":"Krishna Reddy Colony","lat":12.95622,"lng":77.63719},{"name":"Krishnadoddi","lat":12.75267,"lng":77.61256},{"name":"Krishnaiahnapalya","lat":12.99727,"lng":77.65276},{"name":"Krishnappa Block","lat":13.02013,"lng":77.59},{"name":"Krishnappa Garden","lat":12.97746,"lng":77.65933},{"name":"Krishnappa Layout","lat":12.92339,"lng":77.53014},{"name":"KSRTC Layout","lat":12.91284,"lng":77.59349},{"name":"Kudhurgere Colony","lat":13.06884,"lng":77.47674},{"name":"Kudlu","lat":12.88891,"lng":77.65557},{"name":"Kuduregere","lat":13.07579,"lng":77.47196},{"name":"Kuguru","lat":12.91017,"lng":77.81024},{"name":"Kukkanahalli","lat":13.17495,"lng":77.44171},{"name":"Kumara Park East","lat":12.98863,"lng":77.57963},{"name":"Kumara Park West","lat":12.99103,"lng":77.57793},{"name":"Kumaraswamy Layout","lat":12.90677,"lng":77.5595},{"name":"Kumaraswamy Layout 1st Stage","lat":12.90784,"lng":77.5638},{"name":"Kumaraswamy Layout 2nd Stage","lat":12.9059,"lng":77.55807},{"name":"Kumbalagodu","lat":12.87862,"lng":77.44676},{"name":"Kumbalahalli","lat":13.09245,"lng":77.79297},{"name":"Kumbarahalli","lat":13.1031,"lng":77.49166},{"name":"Kumbena Agrahara","lat":13.0018,"lng":77.74739},{"name":"Kundalahalli","lat":12.96844,"lng":77.71878},{"name":"Kurubara Halli","lat":13.0008,"lng":77.5364},{"name":"Kurubara Karenahalli","lat":12.85437,"lng":77.38384},{"name":"Kurubarahalli","lat":13.1019,"lng":77.79873},{"name":"Kurudu Sonnenahalli","lat":13.01389,"lng":77.73205},{"name":"Kushal Nagar","lat":13.01878,"lng":77.61511},{"name":"Kutaganahalli","lat":12.88856,"lng":77.80204},{"name":"Kuvempu Nagar","lat":12.91445,"lng":77.61375},{"name":"Kuvempu Nagar 1st Stage","lat":13.06941,"lng":77.54013},{"name":"Kuvempu Nagar 2nd Stage","lat":13.07292,"lng":77.54024},{"name":"Kyalasanahalli","lat":13.05646,"lng":77.65913},{"name":"L.R. Nagar 1st Stage","lat":12.94985,"lng":77.61567},{"name":"L.R. Nagar 2nd Stage","lat":12.94969,"lng":77.61746},{"name":"Laggere","lat":13.01087,"lng":77.52073},{"name":"Lake City","lat":12.89974,"lng":77.61734},{"name":"Lakkasandra","lat":12.94322,"lng":77.59971},{"name":"Lakkenahalli","lat":13.04349,"lng":77.3973},{"name":"Lakkondahalli","lat":13.10801,"lng":77.77628},{"name":"Lakshmi Devi Nagar","lat":13.01612,"lng":77.5272},{"name":"Lakshmi Nagar","lat":12.89256,"lng":77.57866},{"name":"Lakshmipura","lat":13.03718,"lng":77.46216},{"name":"Lakshmipuram","lat":12.97755,"lng":77.63068},{"name":"Lakshmisagara","lat":12.81112,"lng":77.72426},{"name":"Lal Bahadur Shastri Nagar","lat":12.96781,"lng":77.67155},{"name":"Langford Gardens","lat":12.96317,"lng":77.59802},{"name":"Langford Town","lat":12.958,"lng":77.60373},{"name":"Lazar Layout","lat":13.0016,"lng":77.61985},{"name":"LBS Nagar","lat":12.97648,"lng":77.63227},{"name":"LIC Colony","lat":12.96907,"lng":77.65421},{"name":"LIG 3rd Stage","lat":13.09616,"lng":77.57767},{"name":"Lingadeeranahalli","lat":12.99981,"lng":77.48127},{"name":"Lingarajapuram","lat":13.00939,"lng":77.62679},{"name":"Lottegollahalli","lat":13.04413,"lng":77.56515},{"name":"Lower Palace Orchard","lat":13.00432,"lng":77.57975},{"name":"LR Bande","lat":13.02853,"lng":77.60916},{"name":"LRDE Layout","lat":12.96914,"lng":77.70004},{"name":"M C Layout","lat":12.9731,"lng":77.53539},{"name":"M Nanjappa Layout","lat":13.06434,"lng":77.63966},{"name":"M S Ramaiah City","lat":12.88331,"lng":77.58813},{"name":"Machohalli","lat":13.00656,"lng":77.45206},{"name":"Machohalli Kaloni","lat":12.99616,"lng":77.4513},{"name":"Madagondanahalli","lat":13.24498,"lng":77.47167},{"name":"Madanayakanahalli","lat":13.05925,"lng":77.46151},{"name":"Madeena Nagar","lat":12.90674,"lng":77.60999},{"name":"Madeshwara Nagara","lat":12.99207,"lng":77.49447},{"name":"Madhav Nagar","lat":12.98514,"lng":77.5773},{"name":"Madhavara","lat":13.0532,"lng":77.47297},{"name":"Madhugirihalli","lat":13.12799,"lng":77.50743},{"name":"Madhuranagara","lat":12.94093,"lng":77.7593},{"name":"Madiwala","lat":12.92381,"lng":77.61763},{"name":"Madure","lat":13.20247,"lng":77.45799},{"name":"Mahadeshwara Nagara","lat":12.90767,"lng":77.61237},{"name":"Mahadevapura","lat":12.99124,"lng":77.68973},{"name":"Mahal Chaudadenahalli","lat":12.87278,"lng":77.80806},{"name":"Mahalakshmi Layout","lat":13.01132,"lng":77.5447},{"name":"Mahalakshmipuram","lat":13.0012,"lng":77.54602},{"name":"Maheshwari Nagar","lat":12.99178,"lng":77.69075},{"name":"Mailanahalli","lat":13.13332,"lng":77.39854},{"name":"Mailasandra","lat":12.91594,"lng":77.49323},{"name":"Maistripalaya","lat":12.93302,"lng":77.62495},{"name":"Maithri Layout","lat":12.98486,"lng":77.75592},{"name":"Makanahalli","lat":13.00914,"lng":77.82841},{"name":"Malagala","lat":12.97787,"lng":77.5161},{"name":"Malappa Layout","lat":13.02707,"lng":77.65115},{"name":"Mallapura","lat":13.0742,"lng":77.39942},{"name":"Mallarabanavadi","lat":13.0736,"lng":77.37946},{"name":"Mallasandra","lat":13.00815,"lng":77.78371},{"name":"Mallathahalli","lat":12.96232,"lng":77.50572},{"name":"Mallenahalli","lat":13.18566,"lng":77.762},{"name":"Mallepura","lat":13.20476,"lng":77.77832},{"name":"Malleshpalya","lat":12.97441,"lng":77.67435},{"name":"Malleswaram","lat":13.00274,"lng":77.57033},{"name":"Mallimakanapura","lat":13.12752,"lng":77.84867},{"name":"Mallohalli","lat":13.2303,"lng":77.45056},{"name":"Mamulpete","lat":12.96873,"lng":77.5778},{"name":"Manchanahalli","lat":12.76625,"lng":77.75258},{"name":"Manchanayakanahalli","lat":12.83502,"lng":77.41729},{"name":"Manchappanahalli","lat":13.14137,"lng":77.72607},{"name":"Manchenahalli","lat":13.03572,"lng":77.35805},{"name":"Mandigere","lat":13.15348,"lng":77.36641},{"name":"Mandur","lat":13.08166,"lng":77.73702},{"name":"Mangamannapalya","lat":12.90581,"lng":77.63237},{"name":"Manjunath Nagar","lat":12.95363,"lng":77.65436},{"name":"Mantanakurchi","lat":13.04404,"lng":77.38454},{"name":"Maragondanahalli","lat":13.20354,"lng":77.57607},{"name":"Maralakunte","lat":13.13229,"lng":77.7049},{"name":"Maranayakanahalli","lat":12.72228,"lng":77.76768},{"name":"Marappa Garden","lat":13.0067,"lng":77.60354},{"name":"Marappa Layout","lat":12.92926,"lng":77.52329},{"name":"Marasandra","lat":13.09949,"lng":77.71485},{"name":"Marasuru","lat":12.76254,"lng":77.71308},{"name":"Marenahalli","lat":12.91826,"lng":77.59167},{"name":"Mariappanapalya","lat":12.99726,"lng":77.55449},{"name":"Maruthi Extension","lat":12.99764,"lng":77.5631},{"name":"Maruthi House Building Co-operative Society Layout","lat":12.99774,"lng":77.54184},{"name":"Maruthi Layout","lat":12.9204,"lng":77.60674},{"name":"Maruthi Nagar","lat":12.97461,"lng":77.67563},{"name":"Maruthi Nagara","lat":12.92245,"lng":77.61389},{"name":"Maruthi Seva Nagar","lat":13.00317,"lng":77.63261},{"name":"Mathikere","lat":13.03336,"lng":77.55818},{"name":"Mathru Layout","lat":13.09706,"lng":77.57484},{"name":"Matta Mallasandra","lat":12.94835,"lng":77.83369},{"name":"Mattabarlu","lat":13.2463,"lng":77.76938},{"name":"Mattahalli","lat":13.10776,"lng":77.45727},{"name":"Mattanahalli","lat":12.87184,"lng":77.82981},{"name":"Mavalli","lat":12.95285,"lng":77.58196},{"name":"Mavallipura","lat":13.12774,"lng":77.52925},{"name":"Mayasandra","lat":12.75124,"lng":77.74651},{"name":"MCECHS Layout","lat":13.07258,"lng":77.61525},{"name":"MCHS Colony","lat":12.91557,"lng":77.62646},{"name":"MCHS Layout","lat":13.07344,"lng":77.6053},{"name":"Medahalli","lat":13.02785,"lng":77.72061},{"name":"Medamaranahalli","lat":12.70151,"lng":77.4516},{"name":"Medihalli","lat":12.96816,"lng":77.84524},{"name":"Medimallasandra","lat":12.9523,"lng":77.83011},{"name":"Meenakshi Layout","lat":12.95463,"lng":77.72445},{"name":"Meenakshi Nagar","lat":12.98819,"lng":77.53233},{"name":"MEG Layout","lat":12.99228,"lng":77.67733},{"name":"Megacity Layout","lat":13.03033,"lng":77.69355},{"name":"Meghanapalya","lat":13.03129,"lng":77.63938},{"name":"MEI Colony","lat":13.01947,"lng":77.52023},{"name":"MEI Layout","lat":13.06119,"lng":77.5039},{"name":"MES Colony","lat":12.95769,"lng":77.66213},{"name":"Metipalya","lat":12.9939,"lng":77.40292},{"name":"Michaelpalya","lat":12.98109,"lng":77.6466},{"name":"Mico Arekere Layout 1st Stage","lat":12.89055,"lng":77.59419},{"name":"MICO Layout","lat":12.91299,"lng":77.60378},{"name":"Midugarapalli","lat":12.70948,"lng":77.8114},{"name":"Milk Colony","lat":13.00933,"lng":77.5583},{"name":"Millai Nagar","lat":12.72151,"lng":77.84118},{"name":"Minakunte Hosuru","lat":13.18185,"lng":77.64224},{"name":"Minaz Nagara","lat":12.91194,"lng":77.5617},{"name":"Misiganahalli","lat":13.16526,"lng":77.66835},{"name":"Mitaganahalli","lat":13.11003,"lng":77.64387},{"name":"MKS Layout","lat":12.87668,"lng":77.56032},{"name":"MLA Layout","lat":13.01791,"lng":77.59068},{"name":"Modi Garden","lat":13.01652,"lng":77.6024},{"name":"Mohan Kumar Nagar","lat":13.03102,"lng":77.55114},{"name":"Mookandapalli","lat":12.74638,"lng":77.80318},{"name":"Motappanapalya","lat":12.97316,"lng":77.63887},{"name":"Mount Joy","lat":12.93974,"lng":77.56168},{"name":"MS Palaya","lat":13.08286,"lng":77.54681},{"name":"MSO Colony","lat":12.99955,"lng":77.62819},{"name":"MSR Layout","lat":12.9519,"lng":77.70124},{"name":"MSR Nagar","lat":13.03331,"lng":77.56682},{"name":"Mugaluru","lat":12.89322,"lng":77.82165},{"name":"Mukkodlu","lat":12.75633,"lng":77.52801},{"name":"Mulluru","lat":12.90487,"lng":77.72513},{"name":"Muneeswara Nagar","lat":12.72648,"lng":77.8072},{"name":"Munekolala","lat":12.94808,"lng":77.70902},{"name":"Muneshwara Layout","lat":13.09684,"lng":77.54074},{"name":"Muneshwara Nagar","lat":13.00525,"lng":77.71325},{"name":"Muninagara","lat":12.74831,"lng":77.53702},{"name":"Munirangappa Layout","lat":13.01861,"lng":77.60571},{"name":"Munireddypalya","lat":13.00708,"lng":77.60041},{"name":"Muniswamappa Layout","lat":13.04411,"lng":77.49037},{"name":"Muniyappa Layout","lat":12.95306,"lng":77.6532},{"name":"Munniswamy Garden","lat":12.94977,"lng":77.62314},{"name":"Muppadighatta","lat":13.24381,"lng":77.44853},{"name":"Murugeshpalaya","lat":12.95613,"lng":77.65757},{"name":"Mutakadahalli","lat":13.14978,"lng":77.84432},{"name":"Muthkuru","lat":12.956,"lng":77.80711},{"name":"Mutsandra","lat":12.93723,"lng":77.78618},{"name":"Muttagatti.","lat":12.70386,"lng":77.72128},{"name":"Muttanalluru","lat":12.83226,"lng":77.73534},{"name":"Muttarayanagudipalya","lat":12.8493,"lng":77.36752},{"name":"Muttugadahalli","lat":13.14124,"lng":77.52604},{"name":"MV Garden","lat":12.97923,"lng":77.62289},{"name":"Mylanahalli","lat":13.14,"lng":77.35555},{"name":"N Thyagaraju Layout","lat":13.00084,"lng":77.63159},{"name":"N. G. R. Layout","lat":12.91196,"lng":77.62236},{"name":"Nadaprabhu Kempegowda Layout","lat":12.91892,"lng":77.45188},{"name":"Naduvatti","lat":13.00643,"lng":77.79709},{"name":"Nagadasanahalli","lat":13.16014,"lng":77.57805},{"name":"Nagadevanahalli","lat":12.93954,"lng":77.49549},{"name":"Nagamangala","lat":13.21653,"lng":77.61883},{"name":"Nagamma Nagar","lat":12.96945,"lng":77.56253},{"name":"Naganayakana Kote","lat":12.96604,"lng":77.79421},{"name":"Nagapura","lat":13.00235,"lng":77.54627},{"name":"Nagarabhavi","lat":12.96642,"lng":77.51308},{"name":"Nagaruru","lat":13.09117,"lng":77.43395},{"name":"Nagasandra","lat":13.04097,"lng":77.50043},{"name":"Nagashettyhalli","lat":13.04681,"lng":77.57368},{"name":"Nagavara","lat":13.03746,"lng":77.6236},{"name":"Nagavarapalaya","lat":12.98989,"lng":77.66401},{"name":"Nagayana Palya","lat":13.00177,"lng":77.63733},{"name":"Nagegowdanapalya","lat":12.86833,"lng":77.5143},{"name":"Nagenahalli","lat":13.13105,"lng":77.57451},{"name":"Nagondanahalli","lat":12.97516,"lng":77.77034},{"name":"NAL Layout","lat":12.92539,"lng":77.59889},{"name":"Nallurahalli","lat":12.96966,"lng":77.7345},{"name":"Nalluru","lat":13.19123,"lng":77.76346},{"name":"Nandini Layout","lat":13.01197,"lng":77.53483},{"name":"Nanjappa Garden","lat":13.02341,"lng":77.65041},{"name":"Nanjappa Layout","lat":13.06826,"lng":77.55668},{"name":"Nanjapura","lat":12.80923,"lng":77.64034},{"name":"Narasimhapalya","lat":12.99827,"lng":77.36402},{"name":"Narasipura","lat":13.11005,"lng":77.46306},{"name":"Narasipura Layout","lat":13.08224,"lng":77.56049},{"name":"Narayana Nagara","lat":12.88189,"lng":77.5554},{"name":"Narayanaghatta","lat":12.83649,"lng":77.726},{"name":"Narayanappa Gardens","lat":12.96575,"lng":77.75062},{"name":"Nataraja Layout","lat":12.89002,"lng":77.5837},{"name":"Navadhi","lat":12.70321,"lng":77.81952},{"name":"Navodaya Nagar","lat":12.88233,"lng":77.58288},{"name":"Navrathna Agrahara","lat":13.19988,"lng":77.63497},{"name":"Neelasandra","lat":12.95218,"lng":77.61409},{"name":"Nehru Nagar","lat":12.98696,"lng":77.57556},{"name":"Nekkundi Dommasandra","lat":12.92746,"lng":77.77614},{"name":"Nelagedaranahalli","lat":13.03086,"lng":77.50471},{"name":"Nelamangala","lat":13.0953,"lng":77.39636},{"name":"Nelluka","lat":13.22139,"lng":77.5414},{"name":"Nellurupuram","lat":12.96702,"lng":77.66497},{"name":"NeoTown","lat":12.82214,"lng":77.66055},{"name":"Neraganahalli","lat":13.23614,"lng":77.6297},{"name":"Neraluru","lat":12.79565,"lng":77.72864},{"name":"Neriga","lat":12.91177,"lng":77.77653},{"name":"Nettigere","lat":12.75906,"lng":77.49521},{"name":"New Bagalur Layout","lat":13.00799,"lng":77.61847},{"name":"New Baiyyappanahalli Extension","lat":12.98708,"lng":77.64573},{"name":"New Thippasandra","lat":12.9737,"lng":77.65369},{"name":"NGEF Layout","lat":12.95927,"lng":77.50939},{"name":"NGOs Colony","lat":12.99603,"lng":77.5258},{"name":"NHCS Layout","lat":12.97252,"lng":77.53108},{"name":"Niranthara Layout","lat":13.13133,"lng":77.63374},{"name":"Nobo Nagar","lat":12.86792,"lng":77.59624},{"name":"Nosenuru","lat":12.74981,"lng":77.64953},{"name":"NR Colony","lat":12.96178,"lng":77.65675},{"name":"NR Layout","lat":12.95593,"lng":77.65111},{"name":"Nrupathunga Nagar","lat":12.883,"lng":77.58378},{"name":"Nrupatunga Nagar","lat":12.95709,"lng":77.50985},{"name":"NTY Layout","lat":12.94994,"lng":77.54266},{"name":"Obalapura","lat":12.96021,"lng":77.82386},{"name":"Officers Colony","lat":12.96325,"lng":77.61509},{"name":"Okalipuram","lat":12.98328,"lng":77.56603},{"name":"Old Baiyappanahalli","lat":12.99435,"lng":77.64093},{"name":"Old Binnamangala","lat":12.97958,"lng":77.64155},{"name":"Old Tharagupete","lat":12.96781,"lng":77.57663},{"name":"Old Thippasandra","lat":12.97208,"lng":77.6465},{"name":"OMBR Layout","lat":13.00821,"lng":77.65278},{"name":"P R Layout","lat":12.95305,"lng":77.7033},{"name":"Paakegowdanapalya","lat":13.1145,"lng":77.51055},{"name":"Padmanabha Nagar","lat":12.91628,"lng":77.55608},{"name":"Pai Layout","lat":12.99311,"lng":77.66668},{"name":"Palanahalli","lat":13.11633,"lng":77.61466},{"name":"Palm Grove","lat":13.0295,"lng":77.63797},{"name":"Panathur","lat":12.93515,"lng":77.70475},{"name":"Panathur Dinne","lat":12.93083,"lng":77.71239},{"name":"Panditapura","lat":13.24617,"lng":77.57999},{"name":"Panduranga Nagar","lat":12.89308,"lng":77.59614},{"name":"Pantarapalya","lat":12.9407,"lng":77.52859},{"name":"Papaiah Layout","lat":13.02716,"lng":77.65481},{"name":"Papanna Layout","lat":13.04822,"lng":77.57931},{"name":"Paramanahalli","lat":13.00853,"lng":77.84376},{"name":"Parangipalya","lat":12.90748,"lng":77.65107},{"name":"Pattanagere","lat":12.92006,"lng":77.5067},{"name":"Pattanduru Agrahara","lat":12.97848,"lng":77.73342},{"name":"Peenya","lat":13.03294,"lng":77.52733},{"name":"Peenya 2nd Stage","lat":13.02832,"lng":77.51296},{"name":"Periyar Nagar","lat":13.00997,"lng":77.61211},{"name":"Pettanahalli","lat":13.05046,"lng":77.79173},{"name":"PF Layout","lat":12.96768,"lng":77.53305},{"name":"Pichaguntarya Palya","lat":12.80453,"lng":77.42225},{"name":"Pillaganahlli","lat":12.84728,"lng":77.5819},{"name":"Pillagumpe","lat":13.112,"lng":77.83852},{"name":"Pillahalli","lat":13.10253,"lng":77.4288},{"name":"Pillana Garden","lat":13.01045,"lng":77.61735},{"name":"PNB Layout","lat":12.87895,"lng":77.5637},{"name":"Polanahalli","lat":13.22523,"lng":77.76701},{"name":"Poojappa Layout","lat":13.03479,"lng":77.64352},{"name":"Poojary Layout","lat":13.02685,"lng":77.57647},{"name":"Poojenahalli","lat":13.21627,"lng":77.65721},{"name":"Post & Telegraph Layout","lat":13.02473,"lng":77.65804},{"name":"Postal and Telecom Colony","lat":13.01243,"lng":77.61783},{"name":"Postal Colony","lat":13.03519,"lng":77.57712},{"name":"Pottery Town","lat":13.00139,"lng":77.60795},{"name":"Prakash Nagar","lat":12.9949,"lng":77.56354},{"name":"Prakruthi Nagar","lat":13.0979,"lng":77.61574},{"name":"Prakruthi Township","lat":13.03088,"lng":77.65215},{"name":"Pramodha Layout","lat":12.9362,"lng":77.52788},{"name":"Prasanna Layout","lat":12.99746,"lng":77.49708},{"name":"Prashanth Extension","lat":12.98353,"lng":77.74892},{"name":"Prashanth Nagar","lat":12.97762,"lng":77.53133},{"name":"Prem Nagar","lat":12.99641,"lng":77.52296},{"name":"Prithvi Layout","lat":12.97718,"lng":77.74365},{"name":"Pudupadacheri","lat":12.95979,"lng":77.60044},{"name":"Pujena Agrahara","lat":13.03267,"lng":77.79363},{"name":"Purushanahalli","lat":13.2376,"lng":77.39171},{"name":"Pushpagiri Nagar","lat":12.92976,"lng":77.53333},{"name":"Putanna Garden","lat":12.99225,"lng":77.66336},{"name":"Puttappa Layout","lat":12.97096,"lng":77.65274},{"name":"Puttenahalli","lat":12.89543,"lng":77.5807},{"name":"Puttirammanadoddi","lat":12.73957,"lng":77.3773},{"name":"R K Hegde Nagara","lat":13.07204,"lng":77.63339},{"name":"R. Narayanapura","lat":12.96433,"lng":77.74156},{"name":"Rachamanahalli.","lat":12.72205,"lng":77.73863},{"name":"Rachenahalli","lat":13.05886,"lng":77.62326},{"name":"Raghavendra Colony","lat":13.06455,"lng":77.52752},{"name":"Ragihalli","lat":12.73864,"lng":77.57458},{"name":"Rahat Bagh","lat":12.99149,"lng":77.66137},{"name":"Rainbow Layout","lat":13.10075,"lng":77.53938},{"name":"Raja Ram Mohan Roy Extension","lat":12.96103,"lng":77.59277},{"name":"Rajajinagar 1st Block","lat":13.00313,"lng":77.55115},{"name":"Rajajinagar 2nd Block","lat":12.99466,"lng":77.5533},{"name":"Rajajinagar 3rd Block","lat":12.98818,"lng":77.55269},{"name":"Rajajinagar 4M Block","lat":12.9821,"lng":77.55787},{"name":"Rajajinagar 4th Block","lat":12.98742,"lng":77.55713},{"name":"Rajajinagar 5th Block","lat":12.98333,"lng":77.5519},{"name":"Rajajinagar 6th Block","lat":12.97834,"lng":77.55375},{"name":"Rajajinagara 1st N Block","lat":13.00518,"lng":77.55231},{"name":"Rajajinagara 1st R Block","lat":13.00781,"lng":77.54964},{"name":"Rajanakunte","lat":13.16919,"lng":77.56394},{"name":"Rajapura","lat":12.77647,"lng":77.67394},{"name":"Rajarajeshwari Nagar","lat":12.92744,"lng":77.51552},{"name":"Rajendranagar","lat":12.94664,"lng":77.6175},{"name":"Rajiv Gandhi Nagar","lat":13.07026,"lng":77.58385},{"name":"Rajotsava Nagar","lat":12.90437,"lng":77.56538},{"name":"Ramachandra Pura","lat":12.98518,"lng":77.56222},{"name":"Ramachandrapura","lat":13.06209,"lng":77.55177},{"name":"Ramadevanahalli","lat":13.19065,"lng":77.43269},{"name":"Ramagondanahalli","lat":12.9559,"lng":77.74058},{"name":"Ramakrishna Layout","lat":13.02723,"lng":77.58065},{"name":"Ramamurthy Nagar","lat":13.01202,"lng":77.67778},{"name":"Ramanahalli","lat":13.18209,"lng":77.74621},{"name":"Ramanayakanahalli","lat":12.90976,"lng":77.75552},{"name":"Ramanna Gardens","lat":13.06507,"lng":77.55484},{"name":"Ramappa Layout","lat":12.89717,"lng":77.58004},{"name":"Ramapura","lat":13.05245,"lng":77.69128},{"name":"Ramasagara","lat":12.82033,"lng":77.71864},{"name":"Ramasandra","lat":12.94485,"lng":77.46731},{"name":"Ramaswami Layout","lat":12.9374,"lng":77.74997},{"name":"Ramaswamy Layout","lat":12.98879,"lng":77.64711},{"name":"Ramaswamypalya","lat":13.00974,"lng":77.63689},{"name":"Ramesh Nagar","lat":12.96335,"lng":77.68003},{"name":"Ramiah Reddy Layout","lat":12.99427,"lng":77.7212},{"name":"Ramohalli","lat":12.90699,"lng":77.41853},{"name":"Ranasingpete","lat":12.96754,"lng":77.57246},{"name":"Rashad Nagar","lat":13.02815,"lng":77.61776},{"name":"Ravugodlu","lat":12.7483,"lng":77.50067},{"name":"Ravutanahalli","lat":13.02649,"lng":77.42346},{"name":"Rayasandra","lat":13.21973,"lng":77.72645},{"name":"Razak Palya","lat":13.14944,"lng":77.65868},{"name":"RBI Colony","lat":13.02878,"lng":77.58855},{"name":"RBI Layout","lat":12.88844,"lng":77.58051},{"name":"Reddihalli","lat":13.18962,"lng":77.75402},{"name":"Reflex Layout","lat":12.90537,"lng":77.50669},{"name":"Rehamathnagara","lat":13.01749,"lng":77.5919},{"name":"RHB Colony","lat":12.99386,"lng":77.69697},{"name":"Richards Town","lat":13.00424,"lng":77.61706},{"name":"Richmond Town","lat":12.96355,"lng":77.60159},{"name":"RMS Colony","lat":13.03956,"lng":77.57673},{"name":"RMV 2nd Stage","lat":13.03601,"lng":77.56953},{"name":"RMV 2nd Stage 1st Block","lat":13.02221,"lng":77.57811},{"name":"RMV 2nd Stage 2nd Block","lat":13.02874,"lng":77.57503},{"name":"Roopena Agrahara","lat":12.91064,"lng":77.62383},{"name":"Royal Placid Layout","lat":12.90077,"lng":77.65776},{"name":"Royal Residency Layout","lat":12.88117,"lng":77.61198},{"name":"RPC Layout","lat":12.96896,"lng":77.54561},{"name":"RT Nagar","lat":13.02272,"lng":77.59571},{"name":"Rudrappa Garden","lat":12.95694,"lng":77.61833},{"name":"Rukmini Nagara","lat":13.04267,"lng":77.5026},{"name":"Rustum Bagh","lat":12.95484,"lng":77.6491},{"name":"RV Layout","lat":12.99864,"lng":77.58344},{"name":"Sadahalli","lat":13.21111,"lng":77.64702},{"name":"Sadananda Nagar","lat":12.996,"lng":77.65788},{"name":"Sadappanahalli","lat":13.1608,"lng":77.79733},{"name":"Sadaramangala","lat":12.9989,"lng":77.73751},{"name":"Sadashivanagar","lat":13.01102,"lng":77.58086},{"name":"Sadenahalli","lat":13.19449,"lng":77.57309},{"name":"Sadgunte Palya","lat":12.93155,"lng":77.60963},{"name":"Sagayapura","lat":13.00541,"lng":77.61324},{"name":"Sahakaranagara","lat":13.06291,"lng":77.58588},{"name":"Sai Layout","lat":12.97289,"lng":77.75223},{"name":"Saitpalya","lat":13.0116,"lng":77.62942},{"name":"Sakalavara","lat":12.82106,"lng":77.60848},{"name":"Samanduru","lat":12.71452,"lng":77.75436},{"name":"Samethanahalli","lat":12.97936,"lng":77.79073},{"name":"Sampangirama Nagar","lat":12.96646,"lng":77.59226},{"name":"Sampige Layout","lat":12.97647,"lng":77.52824},{"name":"Sampige Nagara","lat":12.83471,"lng":77.69736},{"name":"Sampigehalli","lat":13.08164,"lng":77.61827},{"name":"Saneguruvanahalli","lat":12.99043,"lng":77.54224},{"name":"Sanjay Nagar","lat":12.95787,"lng":77.69587},{"name":"Sanjay Nagara","lat":13.0365,"lng":77.57797},{"name":"Sapthagiri Layout","lat":13.03681,"lng":77.49604},{"name":"Saraipalya","lat":13.05043,"lng":77.62784},{"name":"Sarakki","lat":12.90875,"lng":77.57986},{"name":"Saraswathi Nagar","lat":12.99128,"lng":77.68892},{"name":"Saraswathi Nagara","lat":12.97161,"lng":77.529},{"name":"Saraswathipuram","lat":12.97481,"lng":77.63164},{"name":"Sarjapura","lat":12.86009,"lng":77.78614},{"name":"Sarkara Guttahalli","lat":13.04539,"lng":77.78931},{"name":"Sarovara Layout","lat":13.05315,"lng":77.58156},{"name":"Satanuru","lat":13.13237,"lng":77.64686},{"name":"Sathyanagara","lat":12.99964,"lng":77.6396},{"name":"Satyavara","lat":13.14443,"lng":77.79793},{"name":"SBI Colony","lat":12.92592,"lng":77.63254},{"name":"Sector 1","lat":12.91572,"lng":77.64901},{"name":"Sector 2","lat":12.90888,"lng":77.64832},{"name":"Sector 3","lat":12.90908,"lng":77.64141},{"name":"Sector 4","lat":12.91447,"lng":77.64185},{"name":"Sector 5","lat":12.91785,"lng":77.63523},{"name":"Sector 6","lat":12.91434,"lng":77.63171},{"name":"Sector 7","lat":12.91001,"lng":77.63512},{"name":"Sector 8","lat":13.09325,"lng":77.50846},{"name":"Sector 9","lat":13.10155,"lng":77.51269},{"name":"Sector A","lat":13.09684,"lng":77.58645},{"name":"Sector B","lat":13.09828,"lng":77.5818},{"name":"Seegehalli","lat":13.01194,"lng":77.76509},{"name":"Seshadripuram","lat":12.99319,"lng":77.57534},{"name":"Seven Hills Layout","lat":12.91404,"lng":77.55212},{"name":"SFHS Layout","lat":12.91415,"lng":77.60163},{"name":"Shabarinagara","lat":13.07136,"lng":77.63794},{"name":"Shakambari Nagar","lat":12.91358,"lng":77.57594},{"name":"Shakthi Ganapathi Nagar","lat":12.99378,"lng":77.53604},{"name":"Shamana Nagar","lat":12.96021,"lng":77.54275},{"name":"Shamanna Reddy Layout","lat":12.97054,"lng":77.69323},{"name":"Shampura","lat":13.0272,"lng":77.61407},{"name":"Shankanipura","lat":13.10491,"lng":77.77117},{"name":"Shankar Nagar","lat":13.01591,"lng":77.54373},{"name":"Shankarapuram","lat":12.95285,"lng":77.57033},{"name":"Shanthala Nagar","lat":12.97142,"lng":77.59944},{"name":"Shanthi Nagar East","lat":12.72443,"lng":77.82927},{"name":"Shanthi Nagar West","lat":12.72748,"lng":77.82093},{"name":"Shanti Nagar","lat":12.95554,"lng":77.59243},{"name":"Shanubhoganahalli","lat":12.8271,"lng":77.56115},{"name":"Sharada Colony","lat":12.99006,"lng":77.53591},{"name":"Sharadhanagar","lat":13.09424,"lng":77.57639},{"name":"Shashimakanahalli","lat":13.19254,"lng":77.84829},{"name":"SHBCS Layout","lat":12.92866,"lng":77.6396},{"name":"Sheshagirihalli","lat":12.84309,"lng":77.42297},{"name":"Shettigere Chikkajala","lat":13.17962,"lng":77.66588},{"name":"Shettihalli","lat":12.75284,"lng":77.73059},{"name":"Shimpadipura","lat":13.2271,"lng":77.41314},{"name":"Shirdi Sai Nagara","lat":13.06795,"lng":77.6366},{"name":"Shivaganga Layout","lat":12.98951,"lng":77.69001},{"name":"Shivajinagar","lat":12.98553,"lng":77.60545},{"name":"Shivakote","lat":13.13455,"lng":77.51341},{"name":"Shivalingaiah Colony","lat":12.96379,"lng":77.65662},{"name":"Shivanahalli","lat":12.72385,"lng":77.57538},{"name":"Shivapura","lat":13.0266,"lng":77.50666},{"name":"Shree Vinayaka Layout","lat":13.01154,"lng":77.70042},{"name":"Shreyas Colony","lat":12.88317,"lng":77.58248},{"name":"Shyakaladevanapura","lat":13.2469,"lng":77.42888},{"name":"Shyanuboganahalli","lat":13.17932,"lng":77.53171},{"name":"Shyanumangala","lat":12.79359,"lng":77.43167},{"name":"Siddanapalya","lat":12.72416,"lng":77.65998},{"name":"Siddapura","lat":12.95426,"lng":77.73097},{"name":"Siddenahalli","lat":13.19021,"lng":77.82543},{"name":"Siddhartha Nagar","lat":12.95742,"lng":77.6366},{"name":"Sidhartha Colony","lat":12.9231,"lng":77.62039},{"name":"Sidihosakote","lat":12.7291,"lng":77.68733},{"name":"Silver Springs Layout","lat":12.95823,"lng":77.70988},{"name":"Sindhi Colony","lat":12.99463,"lng":77.61658},{"name":"Singahalli","lat":13.16176,"lng":77.72388},{"name":"Singanayakanahalli","lat":13.14786,"lng":77.56932},{"name":"Singapura","lat":13.07824,"lng":77.53771},{"name":"Singarahalli","lat":13.22682,"lng":77.62495},{"name":"Singasandra","lat":12.88102,"lng":77.64901},{"name":"Singena Agrahara","lat":12.8383,"lng":77.71504},{"name":"Sipcot Phase-I","lat":12.75889,"lng":77.80395},{"name":"Sir M. Visvesvaraya Layout","lat":12.88194,"lng":77.67281},{"name":"Sir MV Layout","lat":12.94379,"lng":77.47795},{"name":"Sitaramapalya","lat":12.98244,"lng":77.71647},{"name":"Sivanchetti Gardens","lat":12.98458,"lng":77.6132},{"name":"SK Garden","lat":13.00457,"lng":77.60699},{"name":"Soladevanahalli","lat":13.09191,"lng":77.48806},{"name":"Sollepura","lat":12.83097,"lng":77.75596},{"name":"Soluru","lat":13.07285,"lng":77.84453},{"name":"Somanahalli","lat":12.77246,"lng":77.50468},{"name":"Somashettihalli","lat":13.08693,"lng":77.52068},{"name":"Somasundarapalya","lat":12.89944,"lng":77.65246},{"name":"Somattanahalli","lat":13.16968,"lng":77.76916},{"name":"Someshwaranagar","lat":12.94209,"lng":77.59213},{"name":"Someshwarapura","lat":12.96933,"lng":77.63142},{"name":"Someshwarpura","lat":12.97577,"lng":77.62282},{"name":"Sompura","lat":12.87783,"lng":77.49724},{"name":"Sondekoppa","lat":13.02044,"lng":77.38255},{"name":"Sonnadenahalli","lat":13.09089,"lng":77.80612},{"name":"Sonnaredoddi","lat":12.71016,"lng":77.51876},{"name":"Sonnenahalli","lat":13.19795,"lng":77.50035},{"name":"Sorahunase","lat":12.94726,"lng":77.75383},{"name":"Soundarya Layout","lat":13.06691,"lng":77.4968},{"name":"Southe Gowdanahalli","lat":13.23146,"lng":77.73116},{"name":"SR Layout","lat":12.95471,"lng":77.65067},{"name":"Sri Banashankri Layout","lat":13.17262,"lng":77.55767},{"name":"Sri Guru Raghavendra Nagar","lat":12.89185,"lng":77.57774},{"name":"Sri Krishna Nagar","lat":13.07758,"lng":77.65355},{"name":"Sri Ram Nagar","lat":12.9582,"lng":77.65714},{"name":"Sri Rama Layout","lat":12.89295,"lng":77.58109},{"name":"Sri Sai Layout","lat":13.0396,"lng":77.64454},{"name":"Srigandhakavalu","lat":12.97865,"lng":77.50175},{"name":"Srikantan Layout","lat":12.98806,"lng":77.58201},{"name":"Srinagar","lat":12.94388,"lng":77.55418},{"name":"Srinidhi Layout","lat":12.88309,"lng":77.5709},{"name":"Srinivas Nagar","lat":12.93636,"lng":77.55413},{"name":"Srinivasapura","lat":13.10621,"lng":77.6239},{"name":"Sriramapuram","lat":12.99099,"lng":77.56381},{"name":"Srirampura","lat":13.06603,"lng":77.61968},{"name":"ST Bed Layout","lat":12.93477,"lng":77.63243},{"name":"St. Thomas Town","lat":13.00656,"lng":77.62241},{"name":"Subbarayappana Palya","lat":12.87917,"lng":77.42007},{"name":"Subbayanapalya","lat":13.0081,"lng":77.64185},{"name":"Subedar Garden","lat":12.98001,"lng":77.64355},{"name":"Subrahmanya Nagar","lat":13.00391,"lng":77.55794},{"name":"Subramanya Nagar 2nd Stage","lat":13.00718,"lng":77.55596},{"name":"Subramanyapura","lat":12.8964,"lng":77.53779},{"name":"Sudgunte Palya","lat":12.9832,"lng":77.65662},{"name":"Sudhama Nagar","lat":12.96275,"lng":77.66103},{"name":"Sudhama Nagara","lat":12.95755,"lng":77.58815},{"name":"Suggatta","lat":13.14531,"lng":77.60372},{"name":"Sulibele","lat":13.18431,"lng":77.80002},{"name":"Sulikere","lat":12.93631,"lng":77.44946},{"name":"Sulikere Palya","lat":12.94516,"lng":77.44858},{"name":"Sulikunte","lat":12.88818,"lng":77.72922},{"name":"Sultanpete","lat":12.96994,"lng":77.57388},{"name":"Sulthanpalya","lat":13.02941,"lng":77.60469},{"name":"Sun City Layout","lat":12.88536,"lng":77.58541},{"name":"Sundar Nagar","lat":13.04054,"lng":77.55883},{"name":"Sunkadakatte","lat":12.99502,"lng":77.50653},{"name":"Surabhi Layout","lat":13.09304,"lng":77.60024},{"name":"Suradenapura","lat":13.21094,"lng":77.56193},{"name":"Surajakkanahalli","lat":12.73918,"lng":77.66736},{"name":"Suryanagar Phase 1","lat":12.79309,"lng":77.70004},{"name":"Suryanagar Phase 2","lat":12.77315,"lng":77.68644},{"name":"Suryanagar Phase 3","lat":12.8046,"lng":77.75833},{"name":"Swimming Pool Extension","lat":12.99958,"lng":77.5747},{"name":"Syed Block","lat":12.96597,"lng":77.67441},{"name":"Syndicate Bank Colony","lat":12.97988,"lng":77.52864},{"name":"Syndicate Bank Layout","lat":12.99726,"lng":77.48714},{"name":"Tagachaguppe","lat":12.8668,"lng":77.4545},{"name":"Talacauvery Layout","lat":12.96724,"lng":77.68035},{"name":"Tammarasanahalli","lat":13.19582,"lng":77.83281},{"name":"Tarabanahalli","lat":13.19057,"lng":77.62788},{"name":"Tarahunase","lat":13.17877,"lng":77.58795},{"name":"Tasker Town","lat":12.98016,"lng":77.60582},{"name":"Tatanagar","lat":13.05509,"lng":77.57379},{"name":"Tatnahalli","lat":12.7451,"lng":77.72516},{"name":"Tattaguppe","lat":12.77243,"lng":77.53051},{"name":"Tavarekere","lat":12.96369,"lng":77.40142},{"name":"TC Palya","lat":13.02262,"lng":77.70573},{"name":"Teacher's Colony","lat":12.91883,"lng":77.63412},{"name":"Telecom Layout","lat":13.06918,"lng":77.61548},{"name":"Telecom Layout 10th Block","lat":13.04118,"lng":77.62972},{"name":"Tellohalli Agrahara","lat":13.24099,"lng":77.75326},{"name":"Teneyuru","lat":13.22724,"lng":77.83672},{"name":"Thalaghattapura","lat":12.86982,"lng":77.53567},{"name":"Thammarasanahalli","lat":13.12606,"lng":77.49691},{"name":"Thanisandra","lat":13.05471,"lng":77.63393},{"name":"Tharabanahalli","lat":13.10248,"lng":77.48043},{"name":"Thathanuru","lat":12.91552,"lng":77.82489},{"name":"Thayappana Doddi","lat":12.7117,"lng":77.42669},{"name":"Thendral Avenue","lat":12.74202,"lng":77.84556},{"name":"Therpet","lat":12.72649,"lng":77.83485},{"name":"Thimanahalli","lat":12.97687,"lng":77.53696},{"name":"Thimmah Reddy Colony","lat":12.95847,"lng":77.65482},{"name":"Thimmanahalli","lat":12.96263,"lng":77.77708},{"name":"Thindlu","lat":12.8634,"lng":77.80715},{"name":"Thippasandra","lat":12.97394,"lng":77.651},{"name":"Thirumalashettihalli","lat":12.98484,"lng":77.78384},{"name":"Thirumenahalli","lat":13.09018,"lng":77.63341},{"name":"Thiruvaranga","lat":12.90157,"lng":77.82758},{"name":"Thore Nagasandra","lat":13.11494,"lng":77.47513},{"name":"Thubarahalli","lat":12.95479,"lng":77.72132},{"name":"Thubarahalli Palya","lat":12.9601,"lng":77.72277},{"name":"Thyagaraja Nagar","lat":12.93139,"lng":77.5683},{"name":"Tigalarapalya","lat":12.99333,"lng":77.72206},{"name":"Tilak Nagar","lat":12.92759,"lng":77.59471},{"name":"Timmappanahalli","lat":13.21893,"lng":77.82526},{"name":"Timmasandra","lat":13.17154,"lng":77.58093},{"name":"Timmegaudanadoddi","lat":12.76294,"lng":77.41494},{"name":"Tindlu","lat":13.2339,"lng":77.59471},{"name":"Tirumagondahalli","lat":12.79165,"lng":77.72019},{"name":"Tirumala Nagar","lat":13.09858,"lng":77.56379},{"name":"Toredoddi","lat":12.75808,"lng":77.39786},{"name":"Tunga Nagar","lat":12.9918,"lng":77.48503},{"name":"TVS Nagar","lat":12.72089,"lng":77.80795},{"name":"Tyagadahalli","lat":13.17372,"lng":77.39425},{"name":"Udaya Nagar","lat":12.99636,"lng":77.67245},{"name":"Udayapura","lat":12.82065,"lng":77.51277},{"name":"Uganawadi","lat":13.2389,"lng":77.65728},{"name":"Ullalu","lat":12.95839,"lng":77.47979},{"name":"Upparahalli","lat":13.08947,"lng":77.78101},{"name":"Upper Palace Orchard","lat":13.0075,"lng":77.58103},{"name":"Uragahalli","lat":12.74361,"lng":77.3754},{"name":"Uttanahalli","lat":13.16547,"lng":77.65155},{"name":"Uttarahalli","lat":12.90557,"lng":77.54554},{"name":"Vabasandra","lat":13.12215,"lng":77.77971},{"name":"Vadakunte","lat":13.21469,"lng":77.36628},{"name":"Vaddarapalya","lat":13.07864,"lng":77.36808},{"name":"Vaderahalli","lat":12.74054,"lng":77.47999},{"name":"Vagata","lat":13.02339,"lng":77.83618},{"name":"Vaikuntam Layout","lat":12.95953,"lng":77.71322},{"name":"Vaishnavi Layout","lat":13.07684,"lng":77.553},{"name":"Vajarahalli","lat":12.8239,"lng":77.39113},{"name":"Vajrahalli","lat":12.87593,"lng":77.54719},{"name":"Vakil Marina Layout","lat":12.90159,"lng":77.61763},{"name":"Valagere Kallahalli","lat":12.8822,"lng":77.77619},{"name":"Valepura","lat":12.95622,"lng":77.76608},{"name":"Valepura Dinne","lat":12.95124,"lng":77.77011},{"name":"Valluvarpuram","lat":12.9951,"lng":77.56838},{"name":"Valmiki Nagar","lat":12.95673,"lng":77.55459},{"name":"Vannarapete","lat":12.95999,"lng":77.61764},{"name":"Varadenahalli","lat":13.21638,"lng":77.80273},{"name":"Varanasi","lat":13.0305,"lng":77.68607},{"name":"Varthur","lat":12.94065,"lng":77.74699},{"name":"Varthur Kodi","lat":12.95639,"lng":77.74563},{"name":"Vasanth Nagar","lat":12.99217,"lng":77.59146},{"name":"Vasanthappa Block","lat":13.02587,"lng":77.58863},{"name":"Vasanthapura","lat":12.89826,"lng":77.54983},{"name":"Vasudevapura","lat":12.8175,"lng":77.52017},{"name":"Veerabhadra Nagara","lat":12.93829,"lng":77.53496},{"name":"Veerasagara","lat":13.10508,"lng":77.55394},{"name":"Venkatala","lat":13.11221,"lng":77.60265},{"name":"Venkatapura","lat":13.11414,"lng":77.782},{"name":"Venkateshapura","lat":13.07423,"lng":77.61926},{"name":"Venkatpura","lat":12.92256,"lng":77.63447},{"name":"Venugopala Nagara","lat":13.03973,"lng":77.49399},{"name":"Victoria Layout","lat":12.96566,"lng":77.61427},{"name":"Vidyamanyanagar","lat":13.00713,"lng":77.48964},{"name":"Vidyanagar","lat":13.15903,"lng":77.62433},{"name":"Vidyaranyapura","lat":13.07664,"lng":77.55773},{"name":"Vignananagar","lat":12.97362,"lng":77.68246},{"name":"Vigneshwara Nagara","lat":12.99412,"lng":77.50486},{"name":"Vijaya Bank Colony","lat":13.01557,"lng":77.65922},{"name":"Vijaya Bank Layout","lat":12.89294,"lng":77.60776},{"name":"Vijaya Nagar","lat":12.9664,"lng":77.53541},{"name":"Vijayashree Layout","lat":12.91395,"lng":77.49171},{"name":"Vikas Nagar","lat":12.71787,"lng":77.80468},{"name":"Vikram Nagar","lat":12.8995,"lng":77.56133},{"name":"Vimanapura","lat":12.96218,"lng":77.66355},{"name":"Vinayaka Layout","lat":12.96881,"lng":77.75212},{"name":"Vinayaka Nagar","lat":12.98722,"lng":77.5231},{"name":"Vinayaka Nagar A Block","lat":12.95697,"lng":77.65919},{"name":"Vinayaka Nagar B Block","lat":12.95452,"lng":77.65895},{"name":"Vinayaka Nagara","lat":13.08315,"lng":77.54463},{"name":"Vinayakanagar","lat":12.96456,"lng":77.75411},{"name":"Viniyaka Layout","lat":13.13377,"lng":77.47099},{"name":"Virannapalya","lat":13.04068,"lng":77.61333},{"name":"Virgonagar","lat":13.03312,"lng":77.73486},{"name":"Vishvanathapura","lat":13.18674,"lng":77.55053},{"name":"Vishwanath Nagenahalli","lat":13.03882,"lng":77.60334},{"name":"Vishweshwaraiah Enclave","lat":13.22935,"lng":77.62146},{"name":"Vittal Nagar","lat":12.90122,"lng":77.55508},{"name":"Vittasandra","lat":12.85339,"lng":77.63835},{"name":"Vivekananda Nagar","lat":13.00442,"lng":77.62805},{"name":"Viveknagar","lat":12.95292,"lng":77.62314},{"name":"Vrishabha Nagar","lat":12.99088,"lng":77.52233},{"name":"VS Reddy Colony","lat":12.99115,"lng":77.76406},{"name":"VV Nagar","lat":13.02795,"lng":77.59507},{"name":"VV Puram","lat":12.95318,"lng":77.57611},{"name":"Vyalikaval","lat":13.00426,"lng":77.57517},{"name":"Wasa Layout","lat":12.9706,"lng":77.69815},{"name":"Waseem Layout","lat":13.10564,"lng":77.62673},{"name":"Wellington Paradise Layout","lat":12.87851,"lng":77.64082},{"name":"West of Chord Road 2nd Stage","lat":12.99883,"lng":77.54754},{"name":"Williams Town","lat":12.99916,"lng":77.60676},{"name":"Wilson Garden","lat":12.94893,"lng":77.59683},{"name":"Xavier Layout","lat":12.9646,"lng":77.61271},{"name":"Yadagondanahalli","lat":12.94938,"lng":77.81077},{"name":"Yadava Layout","lat":12.89056,"lng":77.576},{"name":"Yadavanahalli","lat":12.78986,"lng":77.75145},{"name":"Yadiyurappa Nagara","lat":13.15145,"lng":77.56083},{"name":"Yamare","lat":12.8731,"lng":77.76597},{"name":"Yanagunte","lat":13.15646,"lng":77.79198},{"name":"Yaramanchanahalli","lat":13.15601,"lng":77.35568},{"name":"Yarandahalli","lat":12.80877,"lng":77.66736},{"name":"Yarappana Bande","lat":13.09454,"lng":77.68347},{"name":"Yarappanahalli","lat":13.08603,"lng":77.68626},{"name":"Yartiganahalli","lat":13.19568,"lng":77.67516},{"name":"Yashoda Nagar","lat":13.07828,"lng":77.59211},{"name":"Yediyuru","lat":12.9326,"lng":77.57505},{"name":"Yelachenahalli","lat":12.89797,"lng":77.57008},{"name":"Yelahanka New Town","lat":13.0978,"lng":77.58119},{"name":"Yelenahalli","lat":12.86691,"lng":77.6159},{"name":"Yellagondanpalya","lat":12.96241,"lng":77.61307},{"name":"Yellappa Chetty Layout","lat":12.97757,"lng":77.61827},{"name":"Yellukunte","lat":12.9045,"lng":77.64158},{"name":"Yemaluru","lat":12.94633,"lng":77.68152},{"name":"Yerrappanahalli","lat":13.21728,"lng":77.70272},{"name":"Yeswanthpur","lat":13.02218,"lng":77.55308},{"name":"Zuzuvadi","lat":12.7684,"lng":77.79143}]
